{
  "busStops": [
    {
      "name": "종로2가사거리",
      "lat": 37.5698055407,
      "lng": 126.9877522923,
      "stopNo": "01001",
      "nodeId": "100000001"
    },
    {
      "name": "창경궁.서울대학교병원",
      "lat": 37.579432932,
      "lng": 126.9965206101,
      "stopNo": "01002",
      "nodeId": "100000002"
    },
    {
      "name": "명륜3가.성대입구",
      "lat": 37.5825800121,
      "lng": 126.9982508372,
      "stopNo": "01003",
      "nodeId": "100000003"
    },
    {
      "name": "종로2가.삼일교",
      "lat": 37.5685792736,
      "lng": 126.9876130976,
      "stopNo": "01004",
      "nodeId": "100000004"
    },
    {
      "name": "혜화동로터리.여운형활동터",
      "lat": 37.586243,
      "lng": 127.001744,
      "stopNo": "01005",
      "nodeId": "100000005"
    },
    {
      "name": "서대문역사거리",
      "lat": 37.566137,
      "lng": 126.966893,
      "stopNo": "01006",
      "nodeId": "101000305"
    },
    {
      "name": "서울역사박물관.경희궁앞",
      "lat": 37.569135,
      "lng": 126.97038,
      "stopNo": "01007",
      "nodeId": "100000380"
    },
    {
      "name": "서울역사박물관.경희궁앞",
      "lat": 37.5695119837,
      "lng": 126.9707589959,
      "stopNo": "01008",
      "nodeId": "100000379"
    },
    {
      "name": "광화문역",
      "lat": 37.5701416811,
      "lng": 126.9763534416,
      "stopNo": "01009",
      "nodeId": "100000384"
    },
    {
      "name": "광화문역",
      "lat": 37.5702396638,
      "lng": 126.9778802991,
      "stopNo": "01010",
      "nodeId": "100000385"
    },
    {
      "name": "종로1가",
      "lat": 37.5701482455,
      "lng": 126.9810660928,
      "stopNo": "01011",
      "nodeId": "100000386"
    },
    {
      "name": "종로1가",
      "lat": 37.5702710116,
      "lng": 126.9816283242,
      "stopNo": "01012",
      "nodeId": "100000387"
    },
    {
      "name": "종로2가",
      "lat": 37.5701723774,
      "lng": 126.9849902588,
      "stopNo": "01013",
      "nodeId": "100000388"
    },
    {
      "name": "종로2가",
      "lat": 37.5702378859,
      "lng": 126.9865353674,
      "stopNo": "01014",
      "nodeId": "100000389"
    },
    {
      "name": "종로3가.탑골공원",
      "lat": 37.5702088889,
      "lng": 126.9893256464,
      "stopNo": "01015",
      "nodeId": "100000390"
    },
    {
      "name": "종로3가.탑골공원",
      "lat": 37.5703605443,
      "lng": 126.9899877751,
      "stopNo": "01016",
      "nodeId": "100000391"
    },
    {
      "name": "종로4가.종묘",
      "lat": 37.5705069968,
      "lng": 126.9947218896,
      "stopNo": "01017",
      "nodeId": "100000392"
    },
    {
      "name": "종로4가.종묘",
      "lat": 37.570635002,
      "lng": 126.995395739,
      "stopNo": "01018",
      "nodeId": "100000393"
    },
    {
      "name": "종로5가.광장시장",
      "lat": 37.5707860047,
      "lng": 126.9990604685,
      "stopNo": "01019",
      "nodeId": "100000394"
    },
    {
      "name": "종로5가.광장시장",
      "lat": 37.570930167,
      "lng": 126.9996038113,
      "stopNo": "01020",
      "nodeId": "100000395"
    },
    {
      "name": "종로6가.동대문종합시장",
      "lat": 37.5710111729,
      "lng": 127.004462788,
      "stopNo": "01021",
      "nodeId": "100000396"
    },
    {
      "name": "종로6가.동대문종합시장",
      "lat": 37.5711272339,
      "lng": 127.0057137364,
      "stopNo": "01022",
      "nodeId": "100000397"
    },
    {
      "name": "동대문역.흥인지문",
      "lat": 37.572447536,
      "lng": 127.013815948,
      "stopNo": "01023",
      "nodeId": "100000398"
    },
    {
      "name": "동대문역.흥인지문",
      "lat": 37.5721524474,
      "lng": 127.0124191046,
      "stopNo": "01037",
      "nodeId": "100000365"
    },
    {
      "name": "동묘앞.서울혜화경찰서",
      "lat": 37.5738321574,
      "lng": 127.0186102731,
      "stopNo": "01041",
      "nodeId": "100000366"
    },
    {
      "name": "동묘앞.서울혜화경찰서",
      "lat": 37.5742464626,
      "lng": 127.0195527812,
      "stopNo": "01044",
      "nodeId": "100000367"
    },
    {
      "name": "경기상고",
      "lat": 37.5875502159,
      "lng": 126.9693634554,
      "stopNo": "01101",
      "nodeId": "100000006"
    },
    {
      "name": "신교동",
      "lat": 37.5832955233,
      "lng": 126.9702626865,
      "stopNo": "01102",
      "nodeId": "100000007"
    },
    {
      "name": "경기상고",
      "lat": 37.5871907861,
      "lng": 126.9697701102,
      "stopNo": "01103",
      "nodeId": "100000008"
    },
    {
      "name": "경복고교",
      "lat": 37.5851600316,
      "lng": 126.9708802468,
      "stopNo": "01104",
      "nodeId": "100000009"
    },
    {
      "name": "청운중학교",
      "lat": 37.587810579,
      "lng": 126.9726741314,
      "stopNo": "01105",
      "nodeId": "100000010"
    },
    {
      "name": "청운중학교",
      "lat": 37.5884219586,
      "lng": 126.9722631304,
      "stopNo": "01108",
      "nodeId": "100000013"
    },
    {
      "name": "경복고교",
      "lat": 37.5850633028,
      "lng": 126.9714039185,
      "stopNo": "01109",
      "nodeId": "100000014"
    },
    {
      "name": "통인시장종로구보건소",
      "lat": 37.5803257033,
      "lng": 126.9710500404,
      "stopNo": "01110",
      "nodeId": "100000015"
    },
    {
      "name": "통인시장종로구보건소",
      "lat": 37.5805132118,
      "lng": 126.9713851083,
      "stopNo": "01111",
      "nodeId": "100000016"
    },
    {
      "name": "효자동",
      "lat": 37.583091043,
      "lng": 126.9706209712,
      "stopNo": "01112",
      "nodeId": "100000017"
    },
    {
      "name": "사직단.어린이도서관",
      "lat": 37.5751355316,
      "lng": 126.9679907155,
      "stopNo": "01113",
      "nodeId": "100000018"
    },
    {
      "name": "경복궁역1번출구",
      "lat": 37.5761614873,
      "lng": 126.9714158133,
      "stopNo": "01114",
      "nodeId": "100000019"
    },
    {
      "name": "경복궁역2번출구",
      "lat": 37.577040144,
      "lng": 126.9721994292,
      "stopNo": "01115",
      "nodeId": "100000020"
    },
    {
      "name": "경복궁역3번출구",
      "lat": 37.5776713863,
      "lng": 126.9722828893,
      "stopNo": "01116",
      "nodeId": "100000021"
    },
    {
      "name": "경복궁",
      "lat": 37.5755767894,
      "lng": 126.9787471496,
      "stopNo": "01117",
      "nodeId": "100000022"
    },
    {
      "name": "광화문역2번출구.KT광화문지사",
      "lat": 37.5723209262,
      "lng": 126.9774162769,
      "stopNo": "01118",
      "nodeId": "100000023"
    },
    {
      "name": "영추문",
      "lat": 37.5789303855,
      "lng": 126.9739817664,
      "stopNo": "01119",
      "nodeId": "100000415"
    },
    {
      "name": "광화문역6번출구",
      "lat": 37.5700448348,
      "lng": 126.97640724,
      "stopNo": "01120",
      "nodeId": "100000025"
    },
    {
      "name": "서울역사박물관.강북삼성병원",
      "lat": 37.570023,
      "lng": 126.971248,
      "stopNo": "01123",
      "nodeId": "100000028"
    },
    {
      "name": "새문안교회",
      "lat": 37.5703368912,
      "lng": 126.9728386477,
      "stopNo": "01124",
      "nodeId": "100000029"
    },
    {
      "name": "광화문역7번출구",
      "lat": 37.570365,
      "lng": 126.975837,
      "stopNo": "01125",
      "nodeId": "100000030"
    },
    {
      "name": "세종문화회관",
      "lat": 37.5736489318,
      "lng": 126.9769975778,
      "stopNo": "01126",
      "nodeId": "100000031"
    },
    {
      "name": "서울경찰청.경복궁역",
      "lat": 37.5757446636,
      "lng": 126.9714842989,
      "stopNo": "01127",
      "nodeId": "100000032"
    },
    {
      "name": "사직단",
      "lat": 37.5748553458,
      "lng": 126.968188961,
      "stopNo": "01128",
      "nodeId": "100000033"
    },
    {
      "name": "광화문역6번출구.광화문빌딩",
      "lat": 37.5695035518,
      "lng": 126.9768637419,
      "stopNo": "01129",
      "nodeId": "100000034"
    },
    {
      "name": "덕성여중고",
      "lat": 37.5757693863,
      "lng": 126.981972246,
      "stopNo": "01130",
      "nodeId": "100000035"
    },
    {
      "name": "안국역.서울공예박물관",
      "lat": 37.5760695565,
      "lng": 126.9839957858,
      "stopNo": "01131",
      "nodeId": "100000036"
    },
    {
      "name": "삼성강북병원.경교장",
      "lat": 37.568145927,
      "lng": 126.9686004828,
      "stopNo": "01165",
      "nodeId": "100000376"
    },
    {
      "name": "독립문역.서대문형무소역사관",
      "lat": 37.573395,
      "lng": 126.959322,
      "stopNo": "01167",
      "nodeId": "100000072"
    },
    {
      "name": "금화초등학교.서울시교육청",
      "lat": 37.567879,
      "lng": 126.964867,
      "stopNo": "01168",
      "nodeId": "100000073"
    },
    {
      "name": "서대문역사거리.적십자병원",
      "lat": 37.5671081521,
      "lng": 126.9675878497,
      "stopNo": "01169",
      "nodeId": "100000368"
    },
    {
      "name": "독립문",
      "lat": 37.5713430165,
      "lng": 126.9614303112,
      "stopNo": "01171",
      "nodeId": "100000075"
    },
    {
      "name": "창덕궁.우리소리박물관",
      "lat": 37.5775405746,
      "lng": 126.9885394479,
      "stopNo": "01172",
      "nodeId": "100000076"
    },
    {
      "name": "서린동.SK서린빌딩",
      "lat": 37.5692639006,
      "lng": 126.9800947893,
      "stopNo": "01173",
      "nodeId": "100000077"
    },
    {
      "name": "청계1가.장통교",
      "lat": 37.568684389,
      "lng": 126.9849267193,
      "stopNo": "01174",
      "nodeId": "100000078"
    },
    {
      "name": "청계2가.수표교",
      "lat": 37.5684453156,
      "lng": 126.9908172161,
      "stopNo": "01175",
      "nodeId": "100000079"
    },
    {
      "name": "청계4가.세운교",
      "lat": 37.5689254028,
      "lng": 126.9965617399,
      "stopNo": "01176",
      "nodeId": "100000080"
    },
    {
      "name": "청계5가.광장시장",
      "lat": 37.5694512793,
      "lng": 126.9997973605,
      "stopNo": "01177",
      "nodeId": "100000081"
    },
    {
      "name": "원남동",
      "lat": 37.5745325055,
      "lng": 126.9973383362,
      "stopNo": "01198",
      "nodeId": "100000102"
    },
    {
      "name": "창덕궁.우리소리박물관",
      "lat": 37.5772726542,
      "lng": 126.9889538872,
      "stopNo": "01199",
      "nodeId": "100000103"
    },
    {
      "name": "안국역6번출구.인사동문화의거리",
      "lat": 37.575798979,
      "lng": 126.9841344381,
      "stopNo": "01200",
      "nodeId": "100000104"
    },
    {
      "name": "조계사.종로경찰서",
      "lat": 37.5725223095,
      "lng": 126.9831555803,
      "stopNo": "01201",
      "nodeId": "100000105"
    },
    {
      "name": "조계사.종로경찰서",
      "lat": 37.5724858087,
      "lng": 126.9828258888,
      "stopNo": "01202",
      "nodeId": "100000106"
    },
    {
      "name": "안국동사거리",
      "lat": 37.5746105669,
      "lng": 126.9827201116,
      "stopNo": "01203",
      "nodeId": "100000107"
    },
    {
      "name": "효제동.김상옥의거터",
      "lat": 37.5745,
      "lng": 127.00223,
      "stopNo": "01204",
      "nodeId": "100000108"
    },
    {
      "name": "종로5가.효제초등학교",
      "lat": 37.5728790133,
      "lng": 127.0021442279,
      "stopNo": "01205",
      "nodeId": "100000109"
    },
    {
      "name": "창덕궁.돈화문국악당",
      "lat": 37.5774327721,
      "lng": 126.991234977,
      "stopNo": "01209",
      "nodeId": "100000414"
    },
    {
      "name": "종로5가역6번출구",
      "lat": 37.5705596025,
      "lng": 127.0021826522,
      "stopNo": "01212",
      "nodeId": "100000116"
    },
    {
      "name": "청계5가.마전교",
      "lat": 37.5698351103,
      "lng": 127.0028494203,
      "stopNo": "01213",
      "nodeId": "100000117"
    },
    {
      "name": "동대문",
      "lat": 37.5717262368,
      "lng": 127.0084126252,
      "stopNo": "01214",
      "nodeId": "100000118"
    },
    {
      "name": "충신동",
      "lat": 37.5740223509,
      "lng": 127.006278812,
      "stopNo": "01215",
      "nodeId": "100000119"
    },
    {
      "name": "충신동",
      "lat": 37.5744602778,
      "lng": 127.0063433807,
      "stopNo": "01217",
      "nodeId": "100000121"
    },
    {
      "name": "연지공원앞",
      "lat": 37.5759104142,
      "lng": 127.0008065808,
      "stopNo": "01218",
      "nodeId": "100000122"
    },
    {
      "name": "방송통신대.이화장",
      "lat": 37.578043,
      "lng": 127.002437,
      "stopNo": "01219",
      "nodeId": "100000123"
    },
    {
      "name": "혜화역2번출구.마로니에공원",
      "lat": 37.5811194873,
      "lng": 127.0022769364,
      "stopNo": "01220",
      "nodeId": "100000124"
    },
    {
      "name": "혜화역3번출구.서울대병원입구",
      "lat": 37.5809559696,
      "lng": 127.0018481852,
      "stopNo": "01221",
      "nodeId": "100000125"
    },
    {
      "name": "방송통신대.이화장",
      "lat": 37.5777889737,
      "lng": 127.0019782952,
      "stopNo": "01222",
      "nodeId": "100000126"
    },
    {
      "name": "연지공원앞",
      "lat": 37.576119355,
      "lng": 127.0006951494,
      "stopNo": "01223",
      "nodeId": "100000127"
    },
    {
      "name": "창경궁.서울대학교병원",
      "lat": 37.5788279947,
      "lng": 126.9968717143,
      "stopNo": "01224",
      "nodeId": "100000128"
    },
    {
      "name": "이화동(이화장)",
      "lat": 37.5759372914,
      "lng": 127.0032708172,
      "stopNo": "01225",
      "nodeId": "100000129"
    },
    {
      "name": "혜화동로터리",
      "lat": 37.5855803307,
      "lng": 127.0006878052,
      "stopNo": "01226",
      "nodeId": "100000130"
    },
    {
      "name": "명륜동2가.성균관대입구",
      "lat": 37.5834170764,
      "lng": 126.9993412723,
      "stopNo": "01227",
      "nodeId": "100000131"
    },
    {
      "name": "남산예장버스환승주차장",
      "lat": 37.55974,
      "lng": 126.989289,
      "stopNo": "02291",
      "nodeId": "101000331"
    },
    {
      "name": "혜화역.서울연극센터(장면총리가옥)",
      "lat": 37.5840306853,
      "lng": 127.0014608831,
      "stopNo": "01228",
      "nodeId": "100000132"
    },
    {
      "name": "혜화역.동성중고(장면총리가옥)",
      "lat": 37.5845329425,
      "lng": 127.0015561579,
      "stopNo": "01229",
      "nodeId": "100000133"
    },
    {
      "name": "종로구민회관.창신동두산아파트",
      "lat": 37.5740926792,
      "lng": 127.0155555279,
      "stopNo": "01231",
      "nodeId": "100000135"
    },
    {
      "name": "동묘앞역6번출구",
      "lat": 37.5716849566,
      "lng": 127.0156014431,
      "stopNo": "01235",
      "nodeId": "100000139"
    },
    {
      "name": "동묘앞역5번출구",
      "lat": 37.5719221488,
      "lng": 127.0159450485,
      "stopNo": "01236",
      "nodeId": "100000140"
    },
    {
      "name": "청계2가교차로",
      "lat": 37.5684809008,
      "lng": 126.9878778705,
      "stopNo": "01237",
      "nodeId": "101000307"
    },
    {
      "name": "창신3동주민센터",
      "lat": 37.578413,
      "lng": 127.015178,
      "stopNo": "01238",
      "nodeId": "100000142"
    },
    {
      "name": "숭인1동주민센터.창신역4번출구",
      "lat": 37.5786281555,
      "lng": 127.0154557816,
      "stopNo": "01239",
      "nodeId": "100000143"
    },
    {
      "name": "동묘앞역.롯데캐슬천지인",
      "lat": 37.5741800523,
      "lng": 127.0158023517,
      "stopNo": "01240",
      "nodeId": "100000144"
    },
    {
      "name": "신설동역오거리",
      "lat": 37.5756947252,
      "lng": 127.0228414296,
      "stopNo": "01243",
      "nodeId": "100000147"
    },
    {
      "name": "동묘앞역2번출구",
      "lat": 37.5736431148,
      "lng": 127.0175234975,
      "stopNo": "01245",
      "nodeId": "100000364"
    },
    {
      "name": "광장시장",
      "lat": 37.5694963125,
      "lng": 126.9977437946,
      "stopNo": "01247",
      "nodeId": "100000151"
    },
    {
      "name": "서울특별시재향군인회관",
      "lat": 37.5725807445,
      "lng": 126.9974787875,
      "stopNo": "01249",
      "nodeId": "100000153"
    },
    {
      "name": "서울역사박물관",
      "lat": 37.5699003386,
      "lng": 126.9721318077,
      "stopNo": "01250",
      "nodeId": "100000154"
    },
    {
      "name": "청계3가.관수교",
      "lat": 37.5686887917,
      "lng": 126.9937793705,
      "stopNo": "01251",
      "nodeId": "100000155"
    },
    {
      "name": "청계6가.버들다리",
      "lat": 37.5699303868,
      "lng": 127.0080377075,
      "stopNo": "01252",
      "nodeId": "100000156"
    },
    {
      "name": "청계7가.맑은내다리",
      "lat": 37.5700419608,
      "lng": 127.0130967122,
      "stopNo": "01253",
      "nodeId": "100000157"
    },
    {
      "name": "청계8가.영도교",
      "lat": 37.5708949889,
      "lng": 127.0181256262,
      "stopNo": "01254",
      "nodeId": "100000158"
    },
    {
      "name": "원남동사거리",
      "lat": 37.5757617378,
      "lng": 126.9981123217,
      "stopNo": "01256",
      "nodeId": "100000159"
    },
    {
      "name": "숭인2동주민센터",
      "lat": 37.5742721533,
      "lng": 127.0204373408,
      "stopNo": "01262",
      "nodeId": "100000165"
    },
    {
      "name": "조계사",
      "lat": 37.572800338,
      "lng": 126.9831609226,
      "stopNo": "01267",
      "nodeId": "100000169"
    },
    {
      "name": "세종문화회관",
      "lat": 37.5733655664,
      "lng": 126.9770167126,
      "stopNo": "01272",
      "nodeId": "100000174"
    },
    {
      "name": "이화동(이화장)",
      "lat": 37.576257,
      "lng": 127.002955,
      "stopNo": "01277",
      "nodeId": "100000179"
    },
    {
      "name": "경복궁역(효자로입구)",
      "lat": 37.576709505,
      "lng": 126.9743023448,
      "stopNo": "01280",
      "nodeId": "100000419"
    },
    {
      "name": "종로중부새마을금고",
      "lat": 37.5724174899,
      "lng": 127.0065911394,
      "stopNo": "01288",
      "nodeId": "100000190"
    },
    {
      "name": "신설동역오거리.서울풍물시장",
      "lat": 37.5742548131,
      "lng": 127.0231950517,
      "stopNo": "01289",
      "nodeId": "100000191"
    },
    {
      "name": "청계2가.삼일교",
      "lat": 37.5683454305,
      "lng": 126.9869890809,
      "stopNo": "01291",
      "nodeId": "100000192"
    },
    {
      "name": "청계8가.황학교",
      "lat": 37.5721307298,
      "lng": 127.0227870051,
      "stopNo": "01292",
      "nodeId": "100000193"
    },
    {
      "name": "안국역5번출구",
      "lat": 37.5763329308,
      "lng": 126.9855365486,
      "stopNo": "01294",
      "nodeId": "100000370"
    },
    {
      "name": "안국역.서울공예박물관",
      "lat": 37.5764140065,
      "lng": 126.9848871214,
      "stopNo": "01295",
      "nodeId": "100000369"
    },
    {
      "name": "창덕궁",
      "lat": 37.5772280879,
      "lng": 126.9890031166,
      "stopNo": "01296",
      "nodeId": "100000371"
    },
    {
      "name": "남인사마당",
      "lat": 37.5713191723,
      "lng": 126.9874286375,
      "stopNo": "01297",
      "nodeId": "100000413"
    },
    {
      "name": "삼청공원",
      "lat": 37.5882276807,
      "lng": 126.9816468946,
      "stopNo": "01501",
      "nodeId": "100900178"
    },
    {
      "name": "수성동계곡",
      "lat": 37.5820813834,
      "lng": 126.9644678921,
      "stopNo": "01502",
      "nodeId": "100900041"
    },
    {
      "name": "명륜새마을금고",
      "lat": 37.5877854691,
      "lng": 126.9967901477,
      "stopNo": "01504",
      "nodeId": "100900197"
    },
    {
      "name": "서대문역3번출구",
      "lat": 37.5663370645,
      "lng": 126.9663939394,
      "stopNo": "01505",
      "nodeId": "100900044"
    },
    {
      "name": "낙산공원",
      "lat": 37.5804037213,
      "lng": 127.0087215681,
      "stopNo": "01506",
      "nodeId": "100900039"
    },
    {
      "name": "인사미술공간.세탁소",
      "lat": 37.5814109836,
      "lng": 126.9893670844,
      "stopNo": "01507",
      "nodeId": "100900037"
    },
    {
      "name": "금융연수원",
      "lat": 37.5866398268,
      "lng": 126.9816582681,
      "stopNo": "01509",
      "nodeId": "100900035"
    },
    {
      "name": "박노수미술관",
      "lat": 37.5809967425,
      "lng": 126.966603478,
      "stopNo": "01510",
      "nodeId": "100900034"
    },
    {
      "name": "서울국제고등학교",
      "lat": 37.5890715947,
      "lng": 126.9972902593,
      "stopNo": "01512",
      "nodeId": "100900031"
    },
    {
      "name": "적십자병원후문앞",
      "lat": 37.5679079449,
      "lng": 126.964905806,
      "stopNo": "01514",
      "nodeId": "100900188"
    },
    {
      "name": "서울성곽.성대후문",
      "lat": 37.5893663808,
      "lng": 126.989569366,
      "stopNo": "01515",
      "nodeId": "100900202"
    },
    {
      "name": "빨래터.고희동미술관",
      "lat": 37.582987218,
      "lng": 126.9890634276,
      "stopNo": "01516",
      "nodeId": "100900026"
    },
    {
      "name": "삼청동주민센터",
      "lat": 37.5842638281,
      "lng": 126.9819071619,
      "stopNo": "01518",
      "nodeId": "100900024"
    },
    {
      "name": "통인시장",
      "lat": 37.5804417494,
      "lng": 126.9684956941,
      "stopNo": "01519",
      "nodeId": "100900020"
    },
    {
      "name": "양현관",
      "lat": 37.5897914226,
      "lng": 126.9936043615,
      "stopNo": "01520",
      "nodeId": "100900021"
    },
    {
      "name": "국민생활관",
      "lat": 37.5897456349,
      "lng": 126.9988619666,
      "stopNo": "01521",
      "nodeId": "100900017"
    },
    {
      "name": "경희궁자이2.3단지",
      "lat": 37.5687871134,
      "lng": 126.9640686009,
      "stopNo": "01523",
      "nodeId": "100900015"
    },
    {
      "name": "창신쌍용2단지.한성대후문",
      "lat": 37.5812647965,
      "lng": 127.0127581151,
      "stopNo": "01524",
      "nodeId": "100900013"
    },
    {
      "name": "통일부",
      "lat": 37.5875948053,
      "lng": 126.9859476734,
      "stopNo": "01525",
      "nodeId": "100900045"
    },
    {
      "name": "원서고개",
      "lat": 37.583080553,
      "lng": 126.9878088426,
      "stopNo": "01526",
      "nodeId": "100900011"
    },
    {
      "name": "종로5가입구",
      "lat": 37.5717928476,
      "lng": 126.9976709493,
      "stopNo": "01528",
      "nodeId": "100900009"
    },
    {
      "name": "삼청파출소",
      "lat": 37.581813662,
      "lng": 126.9812510491,
      "stopNo": "01529",
      "nodeId": "100900007"
    },
    {
      "name": "오거리.한옥마을입구",
      "lat": 37.579404615,
      "lng": 126.9696088803,
      "stopNo": "01530",
      "nodeId": "100900005"
    },
    {
      "name": "명륜시장.성대후문",
      "lat": 37.5885110529,
      "lng": 126.9952543092,
      "stopNo": "01531",
      "nodeId": "100900046"
    },
    {
      "name": "혜화초등학교",
      "lat": 37.5872532276,
      "lng": 126.9998516643,
      "stopNo": "01532",
      "nodeId": "100900003"
    },
    {
      "name": "영천시장",
      "lat": 37.5700818569,
      "lng": 126.9627388724,
      "stopNo": "01534",
      "nodeId": "100900071"
    },
    {
      "name": "명신초.삼선푸르지오.힐스테이트",
      "lat": 37.5821062067,
      "lng": 127.014556281,
      "stopNo": "01535",
      "nodeId": "100900070"
    },
    {
      "name": "감사원",
      "lat": 37.5862106518,
      "lng": 126.9852900569,
      "stopNo": "01536",
      "nodeId": "100900069"
    },
    {
      "name": "중앙중고",
      "lat": 37.583092177,
      "lng": 126.986965299,
      "stopNo": "01537",
      "nodeId": "100900068"
    },
    {
      "name": "종로4가.종묘공원",
      "lat": 37.5706890289,
      "lng": 126.9946203403,
      "stopNo": "01539",
      "nodeId": "100900066"
    },
    {
      "name": "국립민속박물관",
      "lat": 37.5792551846,
      "lng": 126.9795533717,
      "stopNo": "01540",
      "nodeId": "100900174"
    },
    {
      "name": "광화문새마을금고",
      "lat": 37.5793687689,
      "lng": 126.9711466491,
      "stopNo": "01541",
      "nodeId": "100900065"
    },
    {
      "name": "새마을금고",
      "lat": 37.5877370613,
      "lng": 126.996518051,
      "stopNo": "01542",
      "nodeId": "100900064"
    },
    {
      "name": "혜화우체국",
      "lat": 37.5860376565,
      "lng": 127.0006137149,
      "stopNo": "01543",
      "nodeId": "100900063"
    },
    {
      "name": "경희궁자이4단지",
      "lat": 37.5707022242,
      "lng": 126.9621148375,
      "stopNo": "01545",
      "nodeId": "100900061"
    },
    {
      "name": "종로센트레빌후문.e편한세상보문아파트",
      "lat": 37.5817743934,
      "lng": 127.0161855253,
      "stopNo": "01546",
      "nodeId": "100900060"
    },
    {
      "name": "사우디대사관앞.북촌힐스",
      "lat": 37.5841056738,
      "lng": 126.9850311776,
      "stopNo": "01547",
      "nodeId": "100900059"
    },
    {
      "name": "안국선원.삼거리",
      "lat": 37.5827909789,
      "lng": 126.984994076,
      "stopNo": "01548",
      "nodeId": "100900058"
    },
    {
      "name": "종로3가역9번출구",
      "lat": 37.5710875771,
      "lng": 126.9920931881,
      "stopNo": "01550",
      "nodeId": "100900057"
    },
    {
      "name": "경복궁",
      "lat": 37.576950157,
      "lng": 126.9793377561,
      "stopNo": "01551",
      "nodeId": "100900056"
    },
    {
      "name": "독립문역3번출구",
      "lat": 37.5728784775,
      "lng": 126.9597453483,
      "stopNo": "01554",
      "nodeId": "100900186"
    },
    {
      "name": "청룡사.보문파크뷰자이아파트",
      "lat": 37.5800189539,
      "lng": 127.01700714,
      "stopNo": "01555",
      "nodeId": "100900053"
    },
    {
      "name": "북촌한옥마을입구.정세권활동터",
      "lat": 37.5815997311,
      "lng": 126.9849422317,
      "stopNo": "01556",
      "nodeId": "100900052"
    },
    {
      "name": "종로1.2.3.4가동주민센터",
      "lat": 37.5743837122,
      "lng": 126.9911314256,
      "stopNo": "01557",
      "nodeId": "100900217"
    },
    {
      "name": "창덕궁",
      "lat": 37.5760892484,
      "lng": 126.9906200153,
      "stopNo": "01558",
      "nodeId": "100900051"
    },
    {
      "name": "독립문초등학교",
      "lat": 37.5738699714,
      "lng": 126.9606775165,
      "stopNo": "01562",
      "nodeId": "100900049"
    },
    {
      "name": "종로센트레빌아파트",
      "lat": 37.5803534405,
      "lng": 127.0156926979,
      "stopNo": "01563",
      "nodeId": "100900206"
    },
    {
      "name": "가회동주민센터",
      "lat": 37.579972942,
      "lng": 126.9849543284,
      "stopNo": "01564",
      "nodeId": "100900048"
    },
    {
      "name": "원남로터리",
      "lat": 37.5762373738,
      "lng": 126.997511497,
      "stopNo": "01566",
      "nodeId": "100900096"
    },
    {
      "name": "린덴바움숲유치원",
      "lat": 37.5746692802,
      "lng": 126.9618040443,
      "stopNo": "01568",
      "nodeId": "100900094"
    },
    {
      "name": "쌍용아파트입구.창신역",
      "lat": 37.580511226,
      "lng": 127.0149635738,
      "stopNo": "01569",
      "nodeId": "100900093"
    },
    {
      "name": "아름다운가게.정독도서관",
      "lat": 37.5789480833,
      "lng": 126.9851271782,
      "stopNo": "01570",
      "nodeId": "100900092"
    },
    {
      "name": "이화사거리",
      "lat": 37.5765095598,
      "lng": 127.0020914666,
      "stopNo": "01572",
      "nodeId": "100900090"
    },
    {
      "name": "무악현대아파트후문",
      "lat": 37.5763372261,
      "lng": 126.9619411637,
      "stopNo": "01574",
      "nodeId": "100900088"
    },
    {
      "name": "헌법재판소.안국역",
      "lat": 37.5773871956,
      "lng": 126.9858152185,
      "stopNo": "01576",
      "nodeId": "100900086"
    },
    {
      "name": "서울대어린이병원응급실.갑상선센터",
      "lat": 37.5781188768,
      "lng": 126.9995029662,
      "stopNo": "01578",
      "nodeId": "100900085"
    },
    {
      "name": "행촌주차장",
      "lat": 37.5752728058,
      "lng": 126.9628880463,
      "stopNo": "01581",
      "nodeId": "100900082"
    },
    {
      "name": "창신초등학교",
      "lat": 37.5769032044,
      "lng": 127.0153885503,
      "stopNo": "01582",
      "nodeId": "100900207"
    },
    {
      "name": "수운회관",
      "lat": 37.5752189424,
      "lng": 126.986669266,
      "stopNo": "01583",
      "nodeId": "100900081"
    },
    {
      "name": "성결교신대원총회본부",
      "lat": 37.5739763092,
      "lng": 126.9634445669,
      "stopNo": "01587",
      "nodeId": "100900187"
    },
    {
      "name": "낙원상가",
      "lat": 37.5737563689,
      "lng": 126.9874148722,
      "stopNo": "01589",
      "nodeId": "100900078"
    },
    {
      "name": "서울대병원장례식장",
      "lat": 37.5805553988,
      "lng": 126.9974309648,
      "stopNo": "01591",
      "nodeId": "100900076"
    },
    {
      "name": "혜화역1번출구",
      "lat": 37.5834729904,
      "lng": 127.0017632862,
      "stopNo": "01592",
      "nodeId": "100900075"
    },
    {
      "name": "한국사회과학도서관.이회영기념관",
      "lat": 37.5736670147,
      "lng": 126.9641239308,
      "stopNo": "01594",
      "nodeId": "100900073"
    },
    {
      "name": "동묘앞역8번출구",
      "lat": 37.5726943506,
      "lng": 127.0142453819,
      "stopNo": "01595",
      "nodeId": "100900205"
    },
    {
      "name": "종로2가.탑골공원",
      "lat": 37.5705713654,
      "lng": 126.9875484137,
      "stopNo": "01596",
      "nodeId": "100900121"
    },
    {
      "name": "성대입구",
      "lat": 37.5833533096,
      "lng": 126.9992849459,
      "stopNo": "01598",
      "nodeId": "100900198"
    },
    {
      "name": "청와대",
      "lat": 37.5829712951,
      "lng": 126.973768082,
      "stopNo": "01601",
      "nodeId": "100000416"
    },
    {
      "name": "춘추문",
      "lat": 37.5831276121,
      "lng": 126.9796554436,
      "stopNo": "01602",
      "nodeId": "100000417"
    },
    {
      "name": "경복궁.국립민속박물관",
      "lat": 37.5794135204,
      "lng": 126.9795911351,
      "stopNo": "01603",
      "nodeId": "100000418"
    },
    {
      "name": "유림회관앞",
      "lat": 37.5858955968,
      "lng": 126.9969805237,
      "stopNo": "01612",
      "nodeId": "100000421"
    },
    {
      "name": "성균관대정문",
      "lat": 37.5849563466,
      "lng": 126.9966204422,
      "stopNo": "01615",
      "nodeId": "100900218"
    },
    {
      "name": "600주년기념관",
      "lat": 37.5873281035,
      "lng": 126.9939426439,
      "stopNo": "01616",
      "nodeId": "100900219"
    },
    {
      "name": "성균관대운동장",
      "lat": 37.587863,
      "lng": 126.99237,
      "stopNo": "01617",
      "nodeId": "100900220"
    },
    {
      "name": "학생회관",
      "lat": 37.5874203934,
      "lng": 126.9936746328,
      "stopNo": "01618",
      "nodeId": "100900221"
    },
    {
      "name": "종로문화체육센터",
      "lat": 37.5746935562,
      "lng": 126.9645321424,
      "stopNo": "01667",
      "nodeId": "100900118"
    },
    {
      "name": "동대문역2번출구",
      "lat": 37.5720494465,
      "lng": 127.0117218002,
      "stopNo": "01682",
      "nodeId": "100900117"
    },
    {
      "name": "종각역.YMCA",
      "lat": 37.5703976388,
      "lng": 126.98508926,
      "stopNo": "01683",
      "nodeId": "100900116"
    },
    {
      "name": "경복궁역",
      "lat": 37.5770722054,
      "lng": 126.9724733176,
      "stopNo": "01685",
      "nodeId": "100900177"
    },
    {
      "name": "성대입구",
      "lat": 37.5832668015,
      "lng": 126.998853007,
      "stopNo": "01697",
      "nodeId": "100900199"
    },
    {
      "name": "단군성전앞",
      "lat": 37.5755600915,
      "lng": 126.9653175119,
      "stopNo": "01699",
      "nodeId": "100900113"
    },
    {
      "name": "동대문종합시장",
      "lat": 37.5712161296,
      "lng": 127.004958038,
      "stopNo": "01702",
      "nodeId": "100900192"
    },
    {
      "name": "법련사",
      "lat": 37.5765879752,
      "lng": 126.9796650539,
      "stopNo": "01720",
      "nodeId": "100900179"
    },
    {
      "name": "광화문새마을금고",
      "lat": 37.5794930902,
      "lng": 126.9710277184,
      "stopNo": "01721",
      "nodeId": "100900111"
    },
    {
      "name": "성균관대학교",
      "lat": 37.584886,
      "lng": 126.996646,
      "stopNo": "01722",
      "nodeId": "100900110"
    },
    {
      "name": "황학정앞",
      "lat": 37.5768126115,
      "lng": 126.9653293849,
      "stopNo": "01724",
      "nodeId": "100900108"
    },
    {
      "name": "종로5가역.중부교육지원청",
      "lat": 37.5714192458,
      "lng": 127.0020898456,
      "stopNo": "01725",
      "nodeId": "100900107"
    },
    {
      "name": "인사동들머리.3.1독립선언터",
      "lat": 37.5719470235,
      "lng": 126.983296967,
      "stopNo": "01727",
      "nodeId": "100900106"
    },
    {
      "name": "정독도서관",
      "lat": 37.5802605382,
      "lng": 126.980080541,
      "stopNo": "01728",
      "nodeId": "100900105"
    },
    {
      "name": "오거리.한옥마을입구",
      "lat": 37.5794684375,
      "lng": 126.9697392663,
      "stopNo": "01729",
      "nodeId": "100900104"
    },
    {
      "name": "창경궁.고궁호텔.메이플레이스호텔",
      "lat": 37.5765581609,
      "lng": 126.9974492169,
      "stopNo": "01733",
      "nodeId": "100000360"
    },
    {
      "name": "광화문",
      "lat": 37.5703374879,
      "lng": 126.9755694982,
      "stopNo": "01762",
      "nodeId": "100000329"
    },
    {
      "name": "종로1가",
      "lat": 37.57037,
      "lng": 126.980129,
      "stopNo": "01763",
      "nodeId": "100000330"
    },
    {
      "name": "종로2가",
      "lat": 37.5700824558,
      "lng": 126.9864618183,
      "stopNo": "01766",
      "nodeId": "100000333"
    },
    {
      "name": "종로3가역11번출구",
      "lat": 37.5706348964,
      "lng": 126.9932082199,
      "stopNo": "01767",
      "nodeId": "100000334"
    },
    {
      "name": "종로3가",
      "lat": 37.5701024255,
      "lng": 126.9909932186,
      "stopNo": "01768",
      "nodeId": "100000335"
    },
    {
      "name": "종로4가",
      "lat": 37.5704692645,
      "lng": 126.9962507486,
      "stopNo": "01769",
      "nodeId": "100000336"
    },
    {
      "name": "동대문종합시장.종로6가",
      "lat": 37.5708647997,
      "lng": 127.0032911936,
      "stopNo": "01771",
      "nodeId": "100000338"
    },
    {
      "name": "종로도서관",
      "lat": 37.5764842271,
      "lng": 126.9671251598,
      "stopNo": "01776",
      "nodeId": "100900102"
    },
    {
      "name": "경복궁역",
      "lat": 37.5761780936,
      "lng": 126.9715056448,
      "stopNo": "01777",
      "nodeId": "100000343"
    },
    {
      "name": "경복궁역7번출구",
      "lat": 37.5758191735,
      "lng": 126.971681974,
      "stopNo": "01778",
      "nodeId": "100000344"
    },
    {
      "name": "안국역",
      "lat": 37.5766137515,
      "lng": 126.985229602,
      "stopNo": "01779",
      "nodeId": "100000345"
    },
    {
      "name": "안국역",
      "lat": 37.5763185096,
      "lng": 126.9855059829,
      "stopNo": "01780",
      "nodeId": "100000346"
    },
    {
      "name": "창덕궁",
      "lat": 37.5775204226,
      "lng": 126.9889000774,
      "stopNo": "01781",
      "nodeId": "100000347"
    },
    {
      "name": "성대입구",
      "lat": 37.5832827975,
      "lng": 126.9992357955,
      "stopNo": "01782",
      "nodeId": "100000348"
    },
    {
      "name": "종로사우나",
      "lat": 37.5738011149,
      "lng": 126.9877503526,
      "stopNo": "01790",
      "nodeId": "100900101"
    },
    {
      "name": "삼청파출소",
      "lat": 37.58164517,
      "lng": 126.9813258198,
      "stopNo": "01792",
      "nodeId": "100900100"
    },
    {
      "name": "통인시장.종로구보건소",
      "lat": 37.5803350289,
      "lng": 126.9687504797,
      "stopNo": "01793",
      "nodeId": "100900099"
    },
    {
      "name": "종로5가역.광장시장",
      "lat": 37.5707724724,
      "lng": 127.000038992,
      "stopNo": "01794",
      "nodeId": "100900191"
    },
    {
      "name": "배화여중고",
      "lat": 37.5767787564,
      "lng": 126.9676986337,
      "stopNo": "01796",
      "nodeId": "100900145"
    },
    {
      "name": "대학로입구.이화사거리",
      "lat": 37.5759841652,
      "lng": 127.0025801998,
      "stopNo": "01797",
      "nodeId": "100900143"
    },
    {
      "name": "운현궁",
      "lat": 37.5752716136,
      "lng": 126.9869813803,
      "stopNo": "01798",
      "nodeId": "100900144"
    },
    {
      "name": "삼청동주민센터",
      "lat": 37.5846846831,
      "lng": 126.9822105151,
      "stopNo": "01800",
      "nodeId": "100900141"
    },
    {
      "name": "박노수미술관",
      "lat": 37.5810265604,
      "lng": 126.9668944502,
      "stopNo": "01801",
      "nodeId": "100900140"
    },
    {
      "name": "사직공원.경복궁역입구",
      "lat": 37.5762206893,
      "lng": 126.9689039095,
      "stopNo": "01803",
      "nodeId": "100900138"
    },
    {
      "name": "충신시장",
      "lat": 37.5749766498,
      "lng": 127.005404874,
      "stopNo": "01804",
      "nodeId": "100900137"
    },
    {
      "name": "안국역2번출구앞",
      "lat": 37.5771728174,
      "lng": 126.9861183272,
      "stopNo": "01805",
      "nodeId": "100900189"
    },
    {
      "name": "금융연수원",
      "lat": 37.5858776706,
      "lng": 126.981847891,
      "stopNo": "01807",
      "nodeId": "100900135"
    },
    {
      "name": "카센터.사직터널앞",
      "lat": 37.57409862,
      "lng": 126.9658895166,
      "stopNo": "01810",
      "nodeId": "100900133"
    },
    {
      "name": "재동초등학교",
      "lat": 37.578791085,
      "lng": 126.9853617134,
      "stopNo": "01812",
      "nodeId": "100900131"
    },
    {
      "name": "삼청공원삼거리.옥호정터",
      "lat": 37.5874185176,
      "lng": 126.9817444742,
      "stopNo": "01814",
      "nodeId": "100900129"
    },
    {
      "name": "이화사거리",
      "lat": 37.5753200672,
      "lng": 127.0022812884,
      "stopNo": "01815",
      "nodeId": "100900128"
    },
    {
      "name": "대신중고",
      "lat": 37.5726178078,
      "lng": 126.9616893251,
      "stopNo": "01817",
      "nodeId": "100900126"
    },
    {
      "name": "현대사거리",
      "lat": 37.5792417814,
      "lng": 126.9866353642,
      "stopNo": "01819",
      "nodeId": "100900125"
    },
    {
      "name": "교남동주민센터",
      "lat": 37.5721819807,
      "lng": 126.9613278115,
      "stopNo": "01820",
      "nodeId": "100900215"
    },
    {
      "name": "교남동새마을금고",
      "lat": 37.5714943551,
      "lng": 126.962337459,
      "stopNo": "01824",
      "nodeId": "100900123"
    },
    {
      "name": "창신초교",
      "lat": 37.5760372123,
      "lng": 127.0157200961,
      "stopNo": "01825",
      "nodeId": "100900122"
    },
    {
      "name": "가회동주민센터",
      "lat": 37.5799426497,
      "lng": 126.9851293823,
      "stopNo": "01826",
      "nodeId": "100900168"
    },
    {
      "name": "볼링장",
      "lat": 37.5792554401,
      "lng": 126.9879589184,
      "stopNo": "01827",
      "nodeId": "100900167"
    },
    {
      "name": "월암공원",
      "lat": 37.5712260916,
      "lng": 126.9646918774,
      "stopNo": "01831",
      "nodeId": "100900164"
    },
    {
      "name": "숭인1동주민센터",
      "lat": 37.5774150014,
      "lng": 127.0155607478,
      "stopNo": "01832",
      "nodeId": "100900163"
    },
    {
      "name": "북촌한옥마을입구.정세권활동터",
      "lat": 37.5812807738,
      "lng": 126.9851687446,
      "stopNo": "01833",
      "nodeId": "100900162"
    },
    {
      "name": "스위스대사관",
      "lat": 37.5701413179,
      "lng": 126.9656960774,
      "stopNo": "01837",
      "nodeId": "100900159"
    },
    {
      "name": "안국선원.삼거리",
      "lat": 37.5827432497,
      "lng": 126.9852205387,
      "stopNo": "01839",
      "nodeId": "100900157"
    },
    {
      "name": "혜화동로터리",
      "lat": 37.5859196111,
      "lng": 127.0010032298,
      "stopNo": "01841",
      "nodeId": "100900200"
    },
    {
      "name": "서울시교육청",
      "lat": 37.569381682,
      "lng": 126.9666998924,
      "stopNo": "01843",
      "nodeId": "100900154"
    },
    {
      "name": "창신쌍용1단지.종로센트레빌아파트",
      "lat": 37.5803228198,
      "lng": 127.0155692785,
      "stopNo": "01844",
      "nodeId": "100900210"
    },
    {
      "name": "사우디대사관.북촌힐스",
      "lat": 37.583863308,
      "lng": 126.9852486243,
      "stopNo": "01845",
      "nodeId": "100900153"
    },
    {
      "name": "혜화초등학교",
      "lat": 37.5873892922,
      "lng": 126.9999909413,
      "stopNo": "01847",
      "nodeId": "100900151"
    },
    {
      "name": "강북삼성병원",
      "lat": 37.5685315243,
      "lng": 126.9683376852,
      "stopNo": "01849",
      "nodeId": "100900149"
    },
    {
      "name": "청룡사.보문파크뷰자이아파트",
      "lat": 37.5797846496,
      "lng": 127.0171508787,
      "stopNo": "01850",
      "nodeId": "100900148"
    },
    {
      "name": "감사원",
      "lat": 37.5862656518,
      "lng": 126.9855618026,
      "stopNo": "01851",
      "nodeId": "100900147"
    },
    {
      "name": "국민생활관",
      "lat": 37.5896275957,
      "lng": 126.9993137839,
      "stopNo": "01852",
      "nodeId": "100900201"
    },
    {
      "name": "종로센트레빌후문.e편한세상보문아파트",
      "lat": 37.5818978359,
      "lng": 127.0162353711,
      "stopNo": "01855",
      "nodeId": "100900173"
    },
    {
      "name": "통일부",
      "lat": 37.5875308468,
      "lng": 126.9861073451,
      "stopNo": "01856",
      "nodeId": "100900172"
    },
    {
      "name": "서울국제고등학교",
      "lat": 37.5890742944,
      "lng": 126.9971407875,
      "stopNo": "01858",
      "nodeId": "100900171"
    },
    {
      "name": "성대후문.와룡공원",
      "lat": 37.5891522774,
      "lng": 126.989734001,
      "stopNo": "01860",
      "nodeId": "100900203"
    },
    {
      "name": "새마을금고",
      "lat": 37.5878406881,
      "lng": 126.9965690016,
      "stopNo": "01862",
      "nodeId": "100900169"
    },
    {
      "name": "명륜시장.성대후문",
      "lat": 37.5887246101,
      "lng": 126.9952305162,
      "stopNo": "01864",
      "nodeId": "100900004"
    },
    {
      "name": "양현관",
      "lat": 37.5897680031,
      "lng": 126.9937685575,
      "stopNo": "01866",
      "nodeId": "100900008"
    },
    {
      "name": "혜화역4번출구",
      "lat": 37.5835080381,
      "lng": 127.0015538872,
      "stopNo": "01876",
      "nodeId": "100900027"
    },
    {
      "name": "방송통신대앞",
      "lat": 37.5786973612,
      "lng": 127.0019926794,
      "stopNo": "01877",
      "nodeId": "100900028"
    },
    {
      "name": "서울대치과대학",
      "lat": 37.5774082997,
      "lng": 126.997800962,
      "stopNo": "01878",
      "nodeId": "100900030"
    },
    {
      "name": "효제초교.연동교회.김마리아활동터",
      "lat": 37.5736413355,
      "lng": 127.0022087811,
      "stopNo": "01879",
      "nodeId": "100900033"
    },
    {
      "name": "성균관대학교",
      "lat": 37.5884638684,
      "lng": 126.9900035953,
      "stopNo": "01881",
      "nodeId": "100900204"
    },
    {
      "name": "서울대치과대학",
      "lat": 37.5775727323,
      "lng": 126.9978632209,
      "stopNo": "01883",
      "nodeId": "100900038"
    },
    {
      "name": "이화사거리",
      "lat": 37.5769483437,
      "lng": 127.0020084833,
      "stopNo": "01886",
      "nodeId": "100900043"
    },
    {
      "name": "서울대학교병원현관.암병원현관",
      "lat": 37.5790872846,
      "lng": 126.9981631637,
      "stopNo": "01887",
      "nodeId": "100900042"
    },
    {
      "name": "종각.공평유적전시관",
      "lat": 37.5715937879,
      "lng": 126.9832427053,
      "stopNo": "01888",
      "nodeId": "100900211"
    },
    {
      "name": "조계사",
      "lat": 37.5736021088,
      "lng": 126.9831364101,
      "stopNo": "01889",
      "nodeId": "100900213"
    },
    {
      "name": "동대문역JW메리어트동대문호텔",
      "lat": 37.5706369793,
      "lng": 127.0092820998,
      "stopNo": "01901",
      "nodeId": "100000399"
    },
    {
      "name": "대학로",
      "lat": 37.58189612,
      "lng": 127.0021204164,
      "stopNo": "01902",
      "nodeId": "100000407"
    },
    {
      "name": "창경궁",
      "lat": 37.5791596347,
      "lng": 126.9964163097,
      "stopNo": "01903",
      "nodeId": "100000408"
    },
    {
      "name": "창덕궁",
      "lat": 37.5775301708,
      "lng": 126.9901776043,
      "stopNo": "01904",
      "nodeId": "100000409"
    },
    {
      "name": "인사동.북촌",
      "lat": 37.5758950223,
      "lng": 126.9837977873,
      "stopNo": "01905",
      "nodeId": "100000410"
    },
    {
      "name": "경복궁.국립민속박물관",
      "lat": 37.579339181,
      "lng": 126.9795487018,
      "stopNo": "01906",
      "nodeId": "100000411"
    },
    {
      "name": "세종문화회관",
      "lat": 37.5731388499,
      "lng": 126.9769120216,
      "stopNo": "01907",
      "nodeId": "100000412"
    },
    {
      "name": "통인시장",
      "lat": 37.5791187605,
      "lng": 126.9713315727,
      "stopNo": "01910",
      "nodeId": "100000401"
    },
    {
      "name": "세종문화회관",
      "lat": 37.5731558567,
      "lng": 126.9770139456,
      "stopNo": "01911",
      "nodeId": "100000402"
    },
    {
      "name": "종각역",
      "lat": 37.5693799579,
      "lng": 126.9828944171,
      "stopNo": "01912",
      "nodeId": "101000313"
    },
    {
      "name": "인사동.탑골공원",
      "lat": 37.5701155367,
      "lng": 126.9888006413,
      "stopNo": "01913",
      "nodeId": "100000403"
    },
    {
      "name": "종묘.세운상가",
      "lat": 37.5703736241,
      "lng": 126.9934997231,
      "stopNo": "01914",
      "nodeId": "100000404"
    },
    {
      "name": "광장시장",
      "lat": 37.5707521431,
      "lng": 126.9996789008,
      "stopNo": "01915",
      "nodeId": "100000405"
    },
    {
      "name": "동묘.숭인동도깨비시장",
      "lat": 37.5734766013,
      "lng": 127.0180439092,
      "stopNo": "01916",
      "nodeId": "100000406"
    },
    {
      "name": "서울풍물시장",
      "lat": 37.5733400255,
      "lng": 127.0231780999,
      "stopNo": "01917",
      "nodeId": "105000553"
    },
    {
      "name": "청와대",
      "lat": 37.582684814,
      "lng": 126.9737600308,
      "stopNo": "01918",
      "nodeId": "100000400"
    },
    {
      "name": "서울역사박물관.경희궁",
      "lat": 37.569902,
      "lng": 126.971956,
      "stopNo": "01919",
      "nodeId": "100000422"
    },
    {
      "name": "명동성당.남대문세무서",
      "lat": 37.5649848069,
      "lng": 126.9875299251,
      "stopNo": "02001",
      "nodeId": "101000001"
    },
    {
      "name": "국가인권위.안중근활동터",
      "lat": 37.5643504711,
      "lng": 126.9878515151,
      "stopNo": "02002",
      "nodeId": "101000002"
    },
    {
      "name": "서울역버스환승센터",
      "lat": 37.5551460158,
      "lng": 126.9722570849,
      "stopNo": "02003",
      "nodeId": "101000003"
    },
    {
      "name": "서울역버스환승센터",
      "lat": 37.5554029828,
      "lng": 126.9725924801,
      "stopNo": "02004",
      "nodeId": "101000004"
    },
    {
      "name": "서울역버스환승센터",
      "lat": 37.555388989,
      "lng": 126.9727238221,
      "stopNo": "02005",
      "nodeId": "101000005"
    },
    {
      "name": "서울역버스환승센터",
      "lat": 37.5554794133,
      "lng": 126.9728547738,
      "stopNo": "02006",
      "nodeId": "101000006"
    },
    {
      "name": "서울역버스환승센터.강우규의거터",
      "lat": 37.5554141603,
      "lng": 126.9729402621,
      "stopNo": "02007",
      "nodeId": "101000007"
    },
    {
      "name": "숭례문",
      "lat": 37.5586388574,
      "lng": 126.9737783904,
      "stopNo": "02008",
      "nodeId": "101000008"
    },
    {
      "name": "서울시청",
      "lat": 37.5661382638,
      "lng": 126.9806320857,
      "stopNo": "02100",
      "nodeId": "101000303"
    },
    {
      "name": "만리동고개",
      "lat": 37.551787064,
      "lng": 126.9626582054,
      "stopNo": "02101",
      "nodeId": "101000009"
    },
    {
      "name": "손기정체육공원입구",
      "lat": 37.5544459527,
      "lng": 126.9662339013,
      "stopNo": "02102",
      "nodeId": "101000010"
    },
    {
      "name": "서울의료보건고등학교.서울역서부",
      "lat": 37.5558478973,
      "lng": 126.9689026242,
      "stopNo": "02103",
      "nodeId": "101000011"
    },
    {
      "name": "서울역서부",
      "lat": 37.556237644,
      "lng": 126.9691514463,
      "stopNo": "02104",
      "nodeId": "101000012"
    },
    {
      "name": "서울역서부",
      "lat": 37.555855,
      "lng": 126.969293,
      "stopNo": "02105",
      "nodeId": "101000013"
    },
    {
      "name": "중림동교차로",
      "lat": 37.5583836266,
      "lng": 126.9691354395,
      "stopNo": "02106",
      "nodeId": "101000014"
    },
    {
      "name": "중림동.충정로역2호선",
      "lat": 37.5596488763,
      "lng": 126.9645407963,
      "stopNo": "02107",
      "nodeId": "101000015"
    },
    {
      "name": "한국경제신문사.서소문역사공원",
      "lat": 37.5602111497,
      "lng": 126.9678680149,
      "stopNo": "02108",
      "nodeId": "101000016"
    },
    {
      "name": "한국경제신문사.서소문역사공원",
      "lat": 37.5606234736,
      "lng": 126.9681135141,
      "stopNo": "02109",
      "nodeId": "101000017"
    },
    {
      "name": "경찰청.동북아역사재단",
      "lat": 37.5630494858,
      "lng": 126.9691267228,
      "stopNo": "02110",
      "nodeId": "101000018"
    },
    {
      "name": "장충동써미트호텔",
      "lat": 37.5622736605,
      "lng": 127.0066750078,
      "stopNo": "02111",
      "nodeId": "101000300"
    },
    {
      "name": "농협은행.유관순활동터",
      "lat": 37.5649062803,
      "lng": 126.9677868059,
      "stopNo": "02113",
      "nodeId": "101000020"
    },
    {
      "name": "염천교",
      "lat": 37.5598696316,
      "lng": 126.97311408,
      "stopNo": "02116",
      "nodeId": "101000021"
    },
    {
      "name": "숭례문",
      "lat": 37.5584010617,
      "lng": 126.97335794,
      "stopNo": "02117",
      "nodeId": "101000022"
    },
    {
      "name": "숭례문.한국일보",
      "lat": 37.5587713091,
      "lng": 126.9737375955,
      "stopNo": "02118",
      "nodeId": "101000023"
    },
    {
      "name": "후암삼거리",
      "lat": 37.5534055956,
      "lng": 126.9759937564,
      "stopNo": "02120",
      "nodeId": "101000025"
    },
    {
      "name": "숭례문",
      "lat": 37.5587633765,
      "lng": 126.974362745,
      "stopNo": "02121",
      "nodeId": "101000026"
    },
    {
      "name": "숭례문",
      "lat": 37.5584195299,
      "lng": 126.9740436876,
      "stopNo": "02122",
      "nodeId": "101000027"
    },
    {
      "name": "숭례문.서울역4번출구",
      "lat": 37.5580006528,
      "lng": 126.9736279452,
      "stopNo": "02123",
      "nodeId": "101000028"
    },
    {
      "name": "숭례문.남대문시장8번출입구",
      "lat": 37.5588723988,
      "lng": 126.9759976615,
      "stopNo": "02124",
      "nodeId": "101000029"
    },
    {
      "name": "숭례문남산방향",
      "lat": 37.5585581643,
      "lng": 126.9756720863,
      "stopNo": "02125",
      "nodeId": "101000030"
    },
    {
      "name": "남대문시장.신세계앞",
      "lat": 37.561191081,
      "lng": 126.9800597585,
      "stopNo": "02126",
      "nodeId": "101000031"
    },
    {
      "name": "북창동.남대문시장",
      "lat": 37.561273,
      "lng": 126.978555,
      "stopNo": "02127",
      "nodeId": "101000032"
    },
    {
      "name": "소공동주민센터",
      "lat": 37.562197167,
      "lng": 126.97644367,
      "stopNo": "02128",
      "nodeId": "101000033"
    },
    {
      "name": "삼성본관앞",
      "lat": 37.5620517519,
      "lng": 126.9759075283,
      "stopNo": "02131",
      "nodeId": "101000034"
    },
    {
      "name": "시청역8번출구",
      "lat": 37.562764205,
      "lng": 126.976148714,
      "stopNo": "02132",
      "nodeId": "101000035"
    },
    {
      "name": "시청역9번출구.시청서소문2청사",
      "lat": 37.5631901447,
      "lng": 126.9746522037,
      "stopNo": "02133",
      "nodeId": "101000036"
    },
    {
      "name": "시청역11번출구",
      "lat": 37.563722,
      "lng": 126.975314,
      "stopNo": "02134",
      "nodeId": "101000037"
    },
    {
      "name": "시청.서소문청사",
      "lat": 37.5635248407,
      "lng": 126.9749539314,
      "stopNo": "02135",
      "nodeId": "101000038"
    },
    {
      "name": "광교",
      "lat": 37.5681069154,
      "lng": 126.9828444051,
      "stopNo": "02136",
      "nodeId": "101000333"
    },
    {
      "name": "서울신문사",
      "lat": 37.5683632936,
      "lng": 126.9773647051,
      "stopNo": "02137",
      "nodeId": "101000039"
    },
    {
      "name": "명동성당",
      "lat": 37.564974163,
      "lng": 126.9874193795,
      "stopNo": "02138",
      "nodeId": "101000337"
    },
    {
      "name": "우리은행종로지점",
      "lat": 37.5678390393,
      "lng": 126.9828658628,
      "stopNo": "02139",
      "nodeId": "101000040"
    },
    {
      "name": "롯데백화점",
      "lat": 37.5645069796,
      "lng": 126.9822069938,
      "stopNo": "02140",
      "nodeId": "101000041"
    },
    {
      "name": "해운센터.롯데영플라자",
      "lat": 37.5628907847,
      "lng": 126.9815478394,
      "stopNo": "02141",
      "nodeId": "101000042"
    },
    {
      "name": "명동.롯데영플라자",
      "lat": 37.562885,
      "lng": 126.982008,
      "stopNo": "02142",
      "nodeId": "101000043"
    },
    {
      "name": "명동입구B",
      "lat": 37.5644247651,
      "lng": 126.9823981134,
      "stopNo": "02143",
      "nodeId": "101000334"
    },
    {
      "name": "신세계백화점",
      "lat": 37.561127344,
      "lng": 126.9814315438,
      "stopNo": "02144",
      "nodeId": "101000045"
    },
    {
      "name": "남대문시장.회현역",
      "lat": 37.5582675237,
      "lng": 126.9777650546,
      "stopNo": "02145",
      "nodeId": "101000046"
    },
    {
      "name": "남대문시장.회현역",
      "lat": 37.5584920257,
      "lng": 126.9784645011,
      "stopNo": "02146",
      "nodeId": "101000047"
    },
    {
      "name": "남산3호터널",
      "lat": 37.5583104538,
      "lng": 126.9827404025,
      "stopNo": "02147",
      "nodeId": "101000048"
    },
    {
      "name": "남산3호터널.정화예술대학교",
      "lat": 37.5595260891,
      "lng": 126.9826359346,
      "stopNo": "02148",
      "nodeId": "101000049"
    },
    {
      "name": "명동역4번출구",
      "lat": 37.560657849,
      "lng": 126.9849157703,
      "stopNo": "02149",
      "nodeId": "101000050"
    },
    {
      "name": "퇴계로2가.명동역5번출구",
      "lat": 37.5609325805,
      "lng": 126.9843582953,
      "stopNo": "02150",
      "nodeId": "101000051"
    },
    {
      "name": "충무로역.한옥마을.한국의집",
      "lat": 37.5612508237,
      "lng": 126.9917771969,
      "stopNo": "02151",
      "nodeId": "101000052"
    },
    {
      "name": "충무로역.한옥마을.한국의집",
      "lat": 37.5609019668,
      "lng": 126.9924098253,
      "stopNo": "02152",
      "nodeId": "101000053"
    },
    {
      "name": "충무로역2번출구",
      "lat": 37.5612375854,
      "lng": 126.9947285429,
      "stopNo": "02153",
      "nodeId": "101000054"
    },
    {
      "name": "충무로역8번출구",
      "lat": 37.5620371603,
      "lng": 126.9964921507,
      "stopNo": "02154",
      "nodeId": "101000055"
    },
    {
      "name": "초동",
      "lat": 37.5633461766,
      "lng": 126.9931119513,
      "stopNo": "02155",
      "nodeId": "101000056"
    },
    {
      "name": "을지로입구.로얄호텔",
      "lat": 37.5658757422,
      "lng": 126.9853902774,
      "stopNo": "02156",
      "nodeId": "101000057"
    },
    {
      "name": "을지로입구.시청입구",
      "lat": 37.5661382638,
      "lng": 126.9811712097,
      "stopNo": "02157",
      "nodeId": "101000058"
    },
    {
      "name": "을지로2가.기업은행본점.서울노동청",
      "lat": 37.566246226,
      "lng": 126.9865233528,
      "stopNo": "02158",
      "nodeId": "101000059"
    },
    {
      "name": "을지로2가.파인에비뉴",
      "lat": 37.5660727123,
      "lng": 126.988670826,
      "stopNo": "02159",
      "nodeId": "101000060"
    },
    {
      "name": "을지로3가",
      "lat": 37.5663729806,
      "lng": 126.9902600103,
      "stopNo": "02160",
      "nodeId": "101000061"
    },
    {
      "name": "을지로3가",
      "lat": 37.5661389597,
      "lng": 126.9914237666,
      "stopNo": "02161",
      "nodeId": "101000062"
    },
    {
      "name": "을지로4가",
      "lat": 37.5666841559,
      "lng": 126.9959336364,
      "stopNo": "02162",
      "nodeId": "101000063"
    },
    {
      "name": "을지로4가.베스트웨스턴국도",
      "lat": 37.5664010399,
      "lng": 126.9968473297,
      "stopNo": "02163",
      "nodeId": "101000064"
    },
    {
      "name": "중구청앞.덕수중학교",
      "lat": 37.564717315,
      "lng": 126.9981484996,
      "stopNo": "02164",
      "nodeId": "101000065"
    },
    {
      "name": "방산시장.을지로4가역6번출구",
      "lat": 37.5668182855,
      "lng": 126.999258524,
      "stopNo": "02165",
      "nodeId": "101000066"
    },
    {
      "name": "을지로5가.중부시장",
      "lat": 37.5666200422,
      "lng": 127.0011150411,
      "stopNo": "02166",
      "nodeId": "101000067"
    },
    {
      "name": "방산시장.훈련원종합체육관",
      "lat": 37.5679608485,
      "lng": 127.0024044565,
      "stopNo": "02167",
      "nodeId": "101000068"
    },
    {
      "name": "을지로5가",
      "lat": 37.5658243542,
      "lng": 127.0025945654,
      "stopNo": "02168",
      "nodeId": "101000069"
    },
    {
      "name": "을지로6가.국립중앙의료원",
      "lat": 37.5661698346,
      "lng": 127.0062316194,
      "stopNo": "02169",
      "nodeId": "101000070"
    },
    {
      "name": "동대문역사문화공원역8번출구",
      "lat": 37.5650528273,
      "lng": 127.0072096931,
      "stopNo": "02170",
      "nodeId": "101000071"
    },
    {
      "name": "동대문역사문화공원역9번출구",
      "lat": 37.5651725525,
      "lng": 127.0077222561,
      "stopNo": "02171",
      "nodeId": "101000072"
    },
    {
      "name": "을지로6가.국립중앙의료원",
      "lat": 37.5664631128,
      "lng": 127.0058434821,
      "stopNo": "02172",
      "nodeId": "101000073"
    },
    {
      "name": "동대문역사문화공원",
      "lat": 37.5673541422,
      "lng": 127.0083555318,
      "stopNo": "02173",
      "nodeId": "101000074"
    },
    {
      "name": "동대문역사문화공원",
      "lat": 37.5674835037,
      "lng": 127.0091685169,
      "stopNo": "02174",
      "nodeId": "101000075"
    },
    {
      "name": "충무아트센터.스포츠센터.중부소방서",
      "lat": 37.5651675256,
      "lng": 127.0135231437,
      "stopNo": "02177",
      "nodeId": "101000077"
    },
    {
      "name": "충무아트센터.스포츠센터.중부소방서",
      "lat": 37.5650178857,
      "lng": 127.0147408667,
      "stopNo": "02178",
      "nodeId": "101000078"
    },
    {
      "name": "성동공업고등학교(무궁화회관)",
      "lat": 37.5683481924,
      "lng": 127.0157558376,
      "stopNo": "02179",
      "nodeId": "101000079"
    },
    {
      "name": "성동공업고등학교앞",
      "lat": 37.5686950625,
      "lng": 127.0161294881,
      "stopNo": "02180",
      "nodeId": "101000080"
    },
    {
      "name": "신당역1번출구.서울중앙시장",
      "lat": 37.5657282804,
      "lng": 127.0187426545,
      "stopNo": "02181",
      "nodeId": "101000081"
    },
    {
      "name": "신당역4번출구.서울중앙시장",
      "lat": 37.5654920748,
      "lng": 127.0194795301,
      "stopNo": "02182",
      "nodeId": "101000082"
    },
    {
      "name": "성동고등학교",
      "lat": 37.5655941894,
      "lng": 127.0221821569,
      "stopNo": "02183",
      "nodeId": "101000083"
    },
    {
      "name": "성동고등학교",
      "lat": 37.5652410933,
      "lng": 127.0223979004,
      "stopNo": "02184",
      "nodeId": "101000084"
    },
    {
      "name": "신당동떡볶이타운.중구여성플라자",
      "lat": 37.5627954621,
      "lng": 127.0150959791,
      "stopNo": "02187",
      "nodeId": "101000085"
    },
    {
      "name": "신당동떡볶이타운.중구여성플라자",
      "lat": 37.5623100443,
      "lng": 127.0151908517,
      "stopNo": "02188",
      "nodeId": "101000086"
    },
    {
      "name": "청구초등학교.청구역",
      "lat": 37.5589483023,
      "lng": 127.0132161263,
      "stopNo": "02189",
      "nodeId": "101000087"
    },
    {
      "name": "장충초등학교.청구역",
      "lat": 37.559257398,
      "lng": 127.0130316796,
      "stopNo": "02190",
      "nodeId": "101000088"
    },
    {
      "name": "약수역2번출구.가온도서관",
      "lat": 37.5557929112,
      "lng": 127.0110429415,
      "stopNo": "02191",
      "nodeId": "101000089"
    },
    {
      "name": "약수역3번출구.약수하이츠",
      "lat": 37.5557496102,
      "lng": 127.0113796895,
      "stopNo": "02192",
      "nodeId": "101000090"
    },
    {
      "name": "약수역4번출구.금호터널입구",
      "lat": 37.553399,
      "lng": 127.012012,
      "stopNo": "02193",
      "nodeId": "101000091"
    },
    {
      "name": "약수역5번출구.금호터널입구",
      "lat": 37.55292373,
      "lng": 127.0118693353,
      "stopNo": "02194",
      "nodeId": "101000092"
    },
    {
      "name": "약수역8번출구.신당사회복지관",
      "lat": 37.5538646495,
      "lng": 127.0099566945,
      "stopNo": "02195",
      "nodeId": "101000093"
    },
    {
      "name": "약수역7번출구.약수동주민센터",
      "lat": 37.5528509718,
      "lng": 127.0092978444,
      "stopNo": "02196",
      "nodeId": "101000094"
    },
    {
      "name": "송도병원앞",
      "lat": 37.5502676468,
      "lng": 127.0077186988,
      "stopNo": "02197",
      "nodeId": "101000095"
    },
    {
      "name": "송도병원앞",
      "lat": 37.550227118,
      "lng": 127.0073984027,
      "stopNo": "02198",
      "nodeId": "101000096"
    },
    {
      "name": "약수역1번출구",
      "lat": 37.556252533,
      "lng": 127.009755648,
      "stopNo": "02199",
      "nodeId": "101000294"
    },
    {
      "name": "장충체육관앞",
      "lat": 37.5583362176,
      "lng": 127.0080610837,
      "stopNo": "02201",
      "nodeId": "101000097"
    },
    {
      "name": "장충체육관앞",
      "lat": 37.5580017329,
      "lng": 127.0078281581,
      "stopNo": "02202",
      "nodeId": "101000098"
    },
    {
      "name": "장충동.동국대입구",
      "lat": 37.560621324,
      "lng": 127.00590981,
      "stopNo": "02203",
      "nodeId": "101000099"
    },
    {
      "name": "장충동.동국대입구",
      "lat": 37.5606663921,
      "lng": 127.0056290943,
      "stopNo": "02204",
      "nodeId": "101000100"
    },
    {
      "name": "퇴계로6가",
      "lat": 37.5634011312,
      "lng": 127.0039011095,
      "stopNo": "02205",
      "nodeId": "101000101"
    },
    {
      "name": "퇴계로6가.광희동주민센터",
      "lat": 37.5635284386,
      "lng": 127.00337576,
      "stopNo": "02206",
      "nodeId": "101000102"
    },
    {
      "name": "퇴계로5가.충무초등학교",
      "lat": 37.5623804057,
      "lng": 126.9999660413,
      "stopNo": "02207",
      "nodeId": "101000103"
    },
    {
      "name": "퇴계로5가.중구청",
      "lat": 37.5627804223,
      "lng": 126.9997252277,
      "stopNo": "02208",
      "nodeId": "101000104"
    },
    {
      "name": "국립극장.반얀트리호텔",
      "lat": 37.551481823,
      "lng": 127.001094708,
      "stopNo": "02209",
      "nodeId": "101000105"
    },
    {
      "name": "국립극장.반얀트리호텔",
      "lat": 37.5515339575,
      "lng": 127.0007525635,
      "stopNo": "02210",
      "nodeId": "101000106"
    },
    {
      "name": "청구역2번출구",
      "lat": 37.5599600605,
      "lng": 127.014656108,
      "stopNo": "02211",
      "nodeId": "101000107"
    },
    {
      "name": "청구역3번출구",
      "lat": 37.5599303778,
      "lng": 127.014219181,
      "stopNo": "02212",
      "nodeId": "101000108"
    },
    {
      "name": "동화동.청구이편한세상",
      "lat": 37.5600244709,
      "lng": 127.018125822,
      "stopNo": "02213",
      "nodeId": "101000109"
    },
    {
      "name": "청구동.신당동삼성아파트",
      "lat": 37.5598126778,
      "lng": 127.0182736903,
      "stopNo": "02214",
      "nodeId": "101000110"
    },
    {
      "name": "백범광장",
      "lat": 37.555737,
      "lng": 126.980093,
      "stopNo": "02215",
      "nodeId": "101000111"
    },
    {
      "name": "남대문경찰서.서울역10번출구",
      "lat": 37.554128189,
      "lng": 126.9738404394,
      "stopNo": "02218",
      "nodeId": "101000113"
    },
    {
      "name": "남대문시장앞.이회영활동터",
      "lat": 37.5609394169,
      "lng": 126.978580386,
      "stopNo": "02219",
      "nodeId": "101000114"
    },
    {
      "name": "남산케이블카.남산산책로입구",
      "lat": 37.5552651842,
      "lng": 126.9839798009,
      "stopNo": "02220",
      "nodeId": "101000115"
    },
    {
      "name": "동대입구역.장충동",
      "lat": 37.558362,
      "lng": 127.005445,
      "stopNo": "02222",
      "nodeId": "101000117"
    },
    {
      "name": "약수역10번출구",
      "lat": 37.556256,
      "lng": 127.009322,
      "stopNo": "02223",
      "nodeId": "101000295"
    },
    {
      "name": "청계1가.광교",
      "lat": 37.5685707852,
      "lng": 126.9833922386,
      "stopNo": "02224",
      "nodeId": "101000119"
    },
    {
      "name": "청계2가.삼일교",
      "lat": 37.5678404706,
      "lng": 126.9885301722,
      "stopNo": "02225",
      "nodeId": "101000120"
    },
    {
      "name": "청계4가.배오개다리",
      "lat": 37.5684843738,
      "lng": 126.9971755363,
      "stopNo": "02226",
      "nodeId": "101000121"
    },
    {
      "name": "청계5가.방산시장",
      "lat": 37.5692149555,
      "lng": 127.0008265972,
      "stopNo": "02227",
      "nodeId": "101000122"
    },
    {
      "name": "청계6가.평화시장",
      "lat": 37.5694411915,
      "lng": 127.0043806283,
      "stopNo": "02228",
      "nodeId": "101000123"
    },
    {
      "name": "청계7가.동평화.청평화시장",
      "lat": 37.5695135434,
      "lng": 127.0138508174,
      "stopNo": "02229",
      "nodeId": "101000124"
    },
    {
      "name": "청계8가.영도교",
      "lat": 37.5707259153,
      "lng": 127.0189971981,
      "stopNo": "02230",
      "nodeId": "101000125"
    },
    {
      "name": "신한은행본점",
      "lat": 37.5611965482,
      "lng": 126.975585201,
      "stopNo": "02233",
      "nodeId": "101000128"
    },
    {
      "name": "퇴계로2가.명동역7번출구",
      "lat": 37.560988,
      "lng": 126.985336,
      "stopNo": "02234",
      "nodeId": "101000335"
    },
    {
      "name": "광희동.동대문역사문화공원역",
      "lat": 37.5654113309,
      "lng": 127.0091092289,
      "stopNo": "02235",
      "nodeId": "101000130"
    },
    {
      "name": "버티고개",
      "lat": 37.5478041512,
      "lng": 127.0060242348,
      "stopNo": "02236",
      "nodeId": "101000131"
    },
    {
      "name": "버티고개",
      "lat": 37.547650494,
      "lng": 127.0061899379,
      "stopNo": "02237",
      "nodeId": "101000132"
    },
    {
      "name": "청계3가.관수교",
      "lat": 37.5682134567,
      "lng": 126.9929650755,
      "stopNo": "02240",
      "nodeId": "101000135"
    },
    {
      "name": "청계6가.오간수교",
      "lat": 37.5694851752,
      "lng": 127.0090361408,
      "stopNo": "02241",
      "nodeId": "101000136"
    },
    {
      "name": "충무로역7번출구",
      "lat": 37.561690572,
      "lng": 126.9933889105,
      "stopNo": "02242",
      "nodeId": "101000137"
    },
    {
      "name": "을지로입구역.광교",
      "lat": 37.5676492567,
      "lng": 126.9825656304,
      "stopNo": "02246",
      "nodeId": "101000141"
    },
    {
      "name": "청계광장",
      "lat": 37.569011,
      "lng": 126.978207,
      "stopNo": "02247",
      "nodeId": "101000338"
    },
    {
      "name": "신당파인힐하나유보라",
      "lat": 37.5649809794,
      "lng": 127.0248560363,
      "stopNo": "02252",
      "nodeId": "101000147"
    },
    {
      "name": "명동입구",
      "lat": 37.5647227393,
      "lng": 126.982474445,
      "stopNo": "02253",
      "nodeId": "101000148"
    },
    {
      "name": "남산북측순환로입구",
      "lat": 37.5506986166,
      "lng": 126.9988218165,
      "stopNo": "02254",
      "nodeId": "101000149"
    },
    {
      "name": "신당동삼성아파트.금호여중",
      "lat": 37.5585545048,
      "lng": 127.0187298806,
      "stopNo": "02255",
      "nodeId": "101000150"
    },
    {
      "name": "신당동대우푸르지오.금호여중",
      "lat": 37.5578078339,
      "lng": 127.019288178,
      "stopNo": "02256",
      "nodeId": "101000151"
    },
    {
      "name": "황학동주민센터",
      "lat": 37.5668556166,
      "lng": 127.0234023516,
      "stopNo": "02257",
      "nodeId": "101000152"
    },
    {
      "name": "신당초등학교앞",
      "lat": 37.5644813411,
      "lng": 127.0239172657,
      "stopNo": "02258",
      "nodeId": "101000153"
    },
    {
      "name": "금호베스트빌.래미안하이베르",
      "lat": 37.5616452068,
      "lng": 127.0240513307,
      "stopNo": "02259",
      "nodeId": "101000154"
    },
    {
      "name": "금호베스트빌.래미안하이베르",
      "lat": 37.5622544456,
      "lng": 127.0243472269,
      "stopNo": "02260",
      "nodeId": "101000155"
    },
    {
      "name": "신당초등학교",
      "lat": 37.5645028357,
      "lng": 127.024240415,
      "stopNo": "02261",
      "nodeId": "101000156"
    },
    {
      "name": "방산종합시장",
      "lat": 37.5678058693,
      "lng": 127.0019301271,
      "stopNo": "02272",
      "nodeId": "101000163"
    },
    {
      "name": "황학동롯데캐슬",
      "lat": 37.5716601701,
      "lng": 127.0220339686,
      "stopNo": "02273",
      "nodeId": "101000164"
    },
    {
      "name": "광희문.광희동사거리",
      "lat": 37.5645499236,
      "lng": 127.0086110484,
      "stopNo": "02274",
      "nodeId": "101000165"
    },
    {
      "name": "광희문.광희동사거리",
      "lat": 37.5644016142,
      "lng": 127.009677887,
      "stopNo": "02275",
      "nodeId": "101000166"
    },
    {
      "name": "황학동롯데캐슬",
      "lat": 37.5708197498,
      "lng": 127.0232958633,
      "stopNo": "02277",
      "nodeId": "101000168"
    },
    {
      "name": "한국은행앞",
      "lat": 37.561408112,
      "lng": 126.9792899798,
      "stopNo": "02278",
      "nodeId": "101000254"
    },
    {
      "name": "서울기동대.광희초등학교",
      "lat": 37.5679222068,
      "lng": 127.0144829458,
      "stopNo": "02279",
      "nodeId": "101000258"
    },
    {
      "name": "동대문역사문화공원동문",
      "lat": 37.567700749,
      "lng": 127.0119962039,
      "stopNo": "02280",
      "nodeId": "101000261"
    },
    {
      "name": "서대문역사거리.농협중앙회",
      "lat": 37.5668848609,
      "lng": 126.9679802656,
      "stopNo": "02281",
      "nodeId": "101000262"
    },
    {
      "name": "서울역9번출구.서울스퀘어빌딩앞",
      "lat": 37.555341632,
      "lng": 126.97323173,
      "stopNo": "02282",
      "nodeId": "101000263"
    },
    {
      "name": "북창동.남대문시장",
      "lat": 37.5608462911,
      "lng": 126.9769187336,
      "stopNo": "02283",
      "nodeId": "101000264"
    },
    {
      "name": "남산공원.구힐튼호텔",
      "lat": 37.5563677408,
      "lng": 126.976567168,
      "stopNo": "02284",
      "nodeId": "101000266"
    },
    {
      "name": "남산공원.구힐튼호텔",
      "lat": 37.5566267411,
      "lng": 126.9767113404,
      "stopNo": "02285",
      "nodeId": "101000265"
    },
    {
      "name": "시청앞.덕수궁",
      "lat": 37.5662122834,
      "lng": 126.9768355729,
      "stopNo": "02286",
      "nodeId": "101000290"
    },
    {
      "name": "남대문세무서.국가인권위원회",
      "lat": 37.5650839621,
      "lng": 126.987866112,
      "stopNo": "02287",
      "nodeId": "101000292"
    },
    {
      "name": "장충문화체육센터.권기옥활동터",
      "lat": 37.5601745008,
      "lng": 127.0025921056,
      "stopNo": "02288",
      "nodeId": "101000293"
    },
    {
      "name": "남산1호터널",
      "lat": 37.5574051765,
      "lng": 126.9921666231,
      "stopNo": "02289",
      "nodeId": "101000328"
    },
    {
      "name": "약수역.3.6호선",
      "lat": 37.5533046573,
      "lng": 127.011705637,
      "stopNo": "02501",
      "nodeId": "101900010"
    },
    {
      "name": "조선일보",
      "lat": 37.5687339805,
      "lng": 126.976883066,
      "stopNo": "02502",
      "nodeId": "101900009"
    },
    {
      "name": "시청역",
      "lat": 37.566031,
      "lng": 126.97701,
      "stopNo": "02503",
      "nodeId": "101900011"
    },
    {
      "name": "서울역",
      "lat": 37.5581897679,
      "lng": 126.9714245129,
      "stopNo": "02505",
      "nodeId": "101900012"
    },
    {
      "name": "숭례문앞",
      "lat": 37.5615164368,
      "lng": 126.976236105,
      "stopNo": "02506",
      "nodeId": "101900007"
    },
    {
      "name": "시청역1호선.서울시청",
      "lat": 37.5673960903,
      "lng": 126.977339075,
      "stopNo": "02507",
      "nodeId": "101900006"
    },
    {
      "name": "신당역하나은행",
      "lat": 37.5654231103,
      "lng": 127.0215878668,
      "stopNo": "02510",
      "nodeId": "101900005"
    },
    {
      "name": "염천교",
      "lat": 37.5597925744,
      "lng": 126.9711136524,
      "stopNo": "02513",
      "nodeId": "101900004"
    },
    {
      "name": "한국경제신문사",
      "lat": 37.5609334062,
      "lng": 126.9679526472,
      "stopNo": "02516",
      "nodeId": "101900003"
    },
    {
      "name": "응봉근린공원.금호산",
      "lat": 37.5535217011,
      "lng": 127.0169189818,
      "stopNo": "02518",
      "nodeId": "101900001"
    },
    {
      "name": "서울방송고등학교.남산타운아파트",
      "lat": 37.5495860191,
      "lng": 127.012409789,
      "stopNo": "02519",
      "nodeId": "101900023"
    },
    {
      "name": "서울방송고등학교.남산타운아파트",
      "lat": 37.5496119425,
      "lng": 127.0122783521,
      "stopNo": "02520",
      "nodeId": "101900022"
    },
    {
      "name": "중구청소년센터.남산타운2상가",
      "lat": 37.5516549062,
      "lng": 127.012751162,
      "stopNo": "02521",
      "nodeId": "101900021"
    },
    {
      "name": "중구청소년센터.남산타운2상가",
      "lat": 37.5519027425,
      "lng": 127.0121655599,
      "stopNo": "02522",
      "nodeId": "101900020"
    },
    {
      "name": "약수시장.남산타운동문",
      "lat": 37.5517332168,
      "lng": 127.0108500123,
      "stopNo": "02523",
      "nodeId": "101900019"
    },
    {
      "name": "약수지구대",
      "lat": 37.5528410964,
      "lng": 127.0119577646,
      "stopNo": "02524",
      "nodeId": "101900018"
    },
    {
      "name": "남대문시장",
      "lat": 37.5614284556,
      "lng": 126.979397311,
      "stopNo": "02605",
      "nodeId": "101000173"
    },
    {
      "name": "을지로입구역롯데호텔",
      "lat": 37.5658047183,
      "lng": 126.9803053067,
      "stopNo": "02639",
      "nodeId": "101000277"
    },
    {
      "name": "소공동웨스틴조선호텔",
      "lat": 37.5645178283,
      "lng": 126.9796461336,
      "stopNo": "02640",
      "nodeId": "101000298"
    },
    {
      "name": "서울광장",
      "lat": 37.565352,
      "lng": 126.978885,
      "stopNo": "02641",
      "nodeId": "101000301"
    },
    {
      "name": "광화문코리아나호텔",
      "lat": 37.5684013914,
      "lng": 126.97690745,
      "stopNo": "02643",
      "nodeId": "101000275"
    },
    {
      "name": "서소문KAL빌딩",
      "lat": 37.5633387369,
      "lng": 126.9743182567,
      "stopNo": "02649",
      "nodeId": "101000276"
    },
    {
      "name": "동국대입구.앰배서더호텔",
      "lat": 37.5597717116,
      "lng": 127.0026102024,
      "stopNo": "02652",
      "nodeId": "101000273"
    },
    {
      "name": "광화문",
      "lat": 37.5687990002,
      "lng": 126.9769067873,
      "stopNo": "02661",
      "nodeId": "101000226"
    },
    {
      "name": "시청.덕수궁",
      "lat": 37.566254,
      "lng": 126.976921,
      "stopNo": "02662",
      "nodeId": "101000227"
    },
    {
      "name": "바비엥스위트",
      "lat": 37.5651089852,
      "lng": 126.9676372948,
      "stopNo": "02664",
      "nodeId": "101000229"
    },
    {
      "name": "서울역",
      "lat": 37.5578195556,
      "lng": 126.9728595843,
      "stopNo": "02665",
      "nodeId": "101000230"
    },
    {
      "name": "명동역.세종호텔",
      "lat": 37.5610860085,
      "lng": 126.9864492986,
      "stopNo": "02669",
      "nodeId": "101000234"
    },
    {
      "name": "충무로역.호텔피제이",
      "lat": 37.5617180187,
      "lng": 126.9955605031,
      "stopNo": "02679",
      "nodeId": "101000244"
    },
    {
      "name": "남대문시장",
      "lat": 37.560967378,
      "lng": 126.9787309255,
      "stopNo": "02680",
      "nodeId": "101000245"
    },
    {
      "name": "이비스엠버서더호텔",
      "lat": 37.5643534324,
      "lng": 126.9823877131,
      "stopNo": "02681",
      "nodeId": "101000246"
    },
    {
      "name": "프레이저플레이스",
      "lat": 37.5628476779,
      "lng": 126.9692683016,
      "stopNo": "02682",
      "nodeId": "101000247"
    },
    {
      "name": "아카시아호텔.웨스턴코업레지던스",
      "lat": 37.5665506121,
      "lng": 127.0034786985,
      "stopNo": "02686",
      "nodeId": "101000257"
    },
    {
      "name": "을지로코업레지던스",
      "lat": 37.5662333554,
      "lng": 127.0053974501,
      "stopNo": "02687",
      "nodeId": "101000256"
    },
    {
      "name": "토요코인호텔.이비스버젯호텔",
      "lat": 37.5645913489,
      "lng": 127.0089472544,
      "stopNo": "02688",
      "nodeId": "101000255"
    },
    {
      "name": "약수역",
      "lat": 37.5537889625,
      "lng": 127.0098978294,
      "stopNo": "02692",
      "nodeId": "101000271"
    },
    {
      "name": "남산밀레니엄힐튼호텔",
      "lat": 37.5554665731,
      "lng": 126.9759752961,
      "stopNo": "02693",
      "nodeId": "101000270"
    },
    {
      "name": "서울역",
      "lat": 37.5580158041,
      "lng": 126.9720456834,
      "stopNo": "02694",
      "nodeId": "101000269"
    },
    {
      "name": "숭례문라마다&스위트호텔",
      "lat": 37.5606109591,
      "lng": 126.9720684843,
      "stopNo": "02695",
      "nodeId": "101000268"
    },
    {
      "name": "시청역더플라자호텔",
      "lat": 37.564836,
      "lng": 126.978066,
      "stopNo": "02699",
      "nodeId": "101000279"
    },
    {
      "name": "시청.서울신문사",
      "lat": 37.568299316,
      "lng": 126.9773647244,
      "stopNo": "02706",
      "nodeId": "101000286"
    },
    {
      "name": "프레이저플레이스남대문",
      "lat": 37.5613760047,
      "lng": 126.9762665716,
      "stopNo": "02707",
      "nodeId": "101000288"
    },
    {
      "name": "프레이저플레이스남대문",
      "lat": 37.5610667807,
      "lng": 126.9755365701,
      "stopNo": "02708",
      "nodeId": "101000287"
    },
    {
      "name": "동대문역사문화공원",
      "lat": 37.5653851887,
      "lng": 127.009245066,
      "stopNo": "02709",
      "nodeId": "101000289"
    },
    {
      "name": "광희동더스프라지르서울동대문",
      "lat": 37.5647333277,
      "lng": 127.0075552593,
      "stopNo": "02710",
      "nodeId": "101000297"
    },
    {
      "name": "동대문디자인플라자DDP",
      "lat": 37.5678529085,
      "lng": 127.009213839,
      "stopNo": "02711",
      "nodeId": "101000296"
    },
    {
      "name": "베이튼호텔",
      "lat": 37.5649993215,
      "lng": 127.0026364414,
      "stopNo": "02712",
      "nodeId": "101000299"
    },
    {
      "name": "광화문",
      "lat": 37.5689435666,
      "lng": 126.9768853297,
      "stopNo": "02901",
      "nodeId": "101000316"
    },
    {
      "name": "덕수궁",
      "lat": 37.566106,
      "lng": 126.976925,
      "stopNo": "02902",
      "nodeId": "101000317"
    },
    {
      "name": "남대문시장",
      "lat": 37.5609231539,
      "lng": 126.9753967375,
      "stopNo": "02903",
      "nodeId": "101000318"
    },
    {
      "name": "명동",
      "lat": 37.5607583289,
      "lng": 126.9856194882,
      "stopNo": "02904",
      "nodeId": "101000319"
    },
    {
      "name": "남산골한옥마을",
      "lat": 37.5609950561,
      "lng": 126.9924383581,
      "stopNo": "02905",
      "nodeId": "101000320"
    },
    {
      "name": "앰버서더호텔",
      "lat": 37.5604635042,
      "lng": 127.0026253879,
      "stopNo": "02906",
      "nodeId": "101000321"
    },
    {
      "name": "신라호텔",
      "lat": 37.5583034007,
      "lng": 127.0054272005,
      "stopNo": "02907",
      "nodeId": "101000322"
    },
    {
      "name": "동대문디자인플라자.동대문시장",
      "lat": 37.5668754028,
      "lng": 127.0085549376,
      "stopNo": "02908",
      "nodeId": "101000324"
    },
    {
      "name": "서울역",
      "lat": 37.553928,
      "lng": 126.972535,
      "stopNo": "02919",
      "nodeId": "102000322"
    },
    {
      "name": "동대문디자인프라자",
      "lat": 37.5677625606,
      "lng": 127.0091304267,
      "stopNo": "02920",
      "nodeId": "101000308"
    },
    {
      "name": "방산.중부시장",
      "lat": 37.5668568761,
      "lng": 126.9994422877,
      "stopNo": "02921",
      "nodeId": "101000309"
    },
    {
      "name": "을지로3가",
      "lat": 37.5665349097,
      "lng": 126.9923255915,
      "stopNo": "02922",
      "nodeId": "101000310"
    },
    {
      "name": "을지로입구",
      "lat": 37.5661309607,
      "lng": 126.981001305,
      "stopNo": "02923",
      "nodeId": "101000311"
    },
    {
      "name": "명동입구",
      "lat": 37.5641526235,
      "lng": 126.9823015539,
      "stopNo": "02925",
      "nodeId": "101000312"
    },
    {
      "name": "신당동중앙시장",
      "lat": 37.5657553187,
      "lng": 127.0194166277,
      "stopNo": "02926",
      "nodeId": "101000314"
    },
    {
      "name": "남산오르미",
      "lat": 37.5581940477,
      "lng": 126.9831348601,
      "stopNo": "02927",
      "nodeId": "101000315"
    },
    {
      "name": "용산우체국",
      "lat": 37.5314970129,
      "lng": 126.9702350163,
      "stopNo": "03005",
      "nodeId": "102000005"
    },
    {
      "name": "용산우체국",
      "lat": 37.5320503694,
      "lng": 126.9705640624,
      "stopNo": "03006",
      "nodeId": "102000006"
    },
    {
      "name": "삼각지역.전쟁기념관",
      "lat": 37.5351801399,
      "lng": 126.9736858311,
      "stopNo": "03007",
      "nodeId": "102000007"
    },
    {
      "name": "삼각지역.전쟁기념관",
      "lat": 37.5359845015,
      "lng": 126.9741608708,
      "stopNo": "03008",
      "nodeId": "102000008"
    },
    {
      "name": "숙대입구역",
      "lat": 37.543295633,
      "lng": 126.9725377982,
      "stopNo": "03009",
      "nodeId": "102000009"
    },
    {
      "name": "성동구청",
      "lat": 37.5641355512,
      "lng": 127.0364064374,
      "stopNo": "04574",
      "nodeId": "103900085"
    },
    {
      "name": "숙대입구역",
      "lat": 37.5437560216,
      "lng": 126.9722320769,
      "stopNo": "03010",
      "nodeId": "102000010"
    },
    {
      "name": "갈월동",
      "lat": 37.5509755993,
      "lng": 126.9722373211,
      "stopNo": "03011",
      "nodeId": "102000011"
    },
    {
      "name": "갈월동",
      "lat": 37.5495337218,
      "lng": 126.9717081909,
      "stopNo": "03012",
      "nodeId": "102000012"
    },
    {
      "name": "남영역.민주화운동기념관",
      "lat": 37.542006922,
      "lng": 126.9719271804,
      "stopNo": "03110",
      "nodeId": "102000018"
    },
    {
      "name": "남영역.민주화운동기념관",
      "lat": 37.541823,
      "lng": 126.972069,
      "stopNo": "03111",
      "nodeId": "102000019"
    },
    {
      "name": "서울드래곤시티",
      "lat": 37.5321566887,
      "lng": 126.9630603924,
      "stopNo": "03120",
      "nodeId": "102000317"
    },
    {
      "name": "용산역3번출구.용산차고지",
      "lat": 37.5318079061,
      "lng": 126.9642145682,
      "stopNo": "03121",
      "nodeId": "102000318"
    },
    {
      "name": "서계동.서울역공항철도15번출구",
      "lat": 37.5524743044,
      "lng": 126.9693404702,
      "stopNo": "03124",
      "nodeId": "102000030"
    },
    {
      "name": "서계동",
      "lat": 37.5516704971,
      "lng": 126.969221961,
      "stopNo": "03125",
      "nodeId": "102000031"
    },
    {
      "name": "청파동",
      "lat": 37.5489916168,
      "lng": 126.9701219815,
      "stopNo": "03126",
      "nodeId": "102000032"
    },
    {
      "name": "청파시장",
      "lat": 37.548679027,
      "lng": 126.9698626298,
      "stopNo": "03127",
      "nodeId": "102000033"
    },
    {
      "name": "숙대입구역.청파동주민센터",
      "lat": 37.5453812474,
      "lng": 126.9707772395,
      "stopNo": "03128",
      "nodeId": "102000034"
    },
    {
      "name": "숙대입구역.청파동주민센터",
      "lat": 37.5454861572,
      "lng": 126.9704188578,
      "stopNo": "03129",
      "nodeId": "102000035"
    },
    {
      "name": "남영역.민주화운동기념관",
      "lat": 37.540813,
      "lng": 126.971032,
      "stopNo": "03130",
      "nodeId": "102000036"
    },
    {
      "name": "남영역.민주화운동기념관",
      "lat": 37.5405702704,
      "lng": 126.9706761392,
      "stopNo": "03131",
      "nodeId": "102000037"
    },
    {
      "name": "용산전자상가17동",
      "lat": 37.5337792589,
      "lng": 126.9660271002,
      "stopNo": "03132",
      "nodeId": "102000038"
    },
    {
      "name": "용산전자상가19동",
      "lat": 37.5335134935,
      "lng": 126.9657072039,
      "stopNo": "03133",
      "nodeId": "102000039"
    },
    {
      "name": "용산전자상가10동",
      "lat": 37.5332725045,
      "lng": 126.9619640523,
      "stopNo": "03134",
      "nodeId": "102000040"
    },
    {
      "name": "용산전자상가12동",
      "lat": 37.5330574076,
      "lng": 126.9621689745,
      "stopNo": "03135",
      "nodeId": "102000041"
    },
    {
      "name": "용산전자상가.전자랜드",
      "lat": 37.5327790559,
      "lng": 126.9583252146,
      "stopNo": "03136",
      "nodeId": "102000042"
    },
    {
      "name": "용산전자상가.전자랜드",
      "lat": 37.5330561177,
      "lng": 126.9583363743,
      "stopNo": "03137",
      "nodeId": "102000043"
    },
    {
      "name": "원효대교북단",
      "lat": 37.5319853728,
      "lng": 126.956110982,
      "stopNo": "03138",
      "nodeId": "102000044"
    },
    {
      "name": "용산경찰서",
      "lat": 37.5405032098,
      "lng": 126.9691858135,
      "stopNo": "03139",
      "nodeId": "102000045"
    },
    {
      "name": "용산경찰서",
      "lat": 37.5399994643,
      "lng": 126.9690615428,
      "stopNo": "03140",
      "nodeId": "102000046"
    },
    {
      "name": "용산꿈나무종합타운.원효로우체국",
      "lat": 37.5386139009,
      "lng": 126.9669290534,
      "stopNo": "03141",
      "nodeId": "102000047"
    },
    {
      "name": "용산e편한세상",
      "lat": 37.5374620591,
      "lng": 126.9654677888,
      "stopNo": "03142",
      "nodeId": "102000048"
    },
    {
      "name": "남정초등학교",
      "lat": 37.5363187485,
      "lng": 126.9636632444,
      "stopNo": "03143",
      "nodeId": "102000049"
    },
    {
      "name": "원효로2가",
      "lat": 37.536237441,
      "lng": 126.9629911361,
      "stopNo": "03144",
      "nodeId": "102000050"
    },
    {
      "name": "원효로2가사거리",
      "lat": 37.5349338369,
      "lng": 126.9610704217,
      "stopNo": "03145",
      "nodeId": "102000051"
    },
    {
      "name": "원효로3가",
      "lat": 37.5340407624,
      "lng": 126.9581798302,
      "stopNo": "03146",
      "nodeId": "102000052"
    },
    {
      "name": "원효로3가",
      "lat": 37.5337957151,
      "lng": 126.9583248022,
      "stopNo": "03147",
      "nodeId": "102000053"
    },
    {
      "name": "용암초등학교입구.이태원주공아파트",
      "lat": 37.5441159432,
      "lng": 126.9886645749,
      "stopNo": "03148",
      "nodeId": "102000054"
    },
    {
      "name": "이태원동남산대림아파트.용산동아파트",
      "lat": 37.5398743674,
      "lng": 126.9874799728,
      "stopNo": "03149",
      "nodeId": "102000055"
    },
    {
      "name": "용산한신아파트",
      "lat": 37.5398054732,
      "lng": 126.9871086322,
      "stopNo": "03150",
      "nodeId": "102000056"
    },
    {
      "name": "해방촌",
      "lat": 37.537817739,
      "lng": 126.986609087,
      "stopNo": "03151",
      "nodeId": "102000057"
    },
    {
      "name": "국군재정관리단",
      "lat": 37.5373177108,
      "lng": 126.9868496115,
      "stopNo": "03152",
      "nodeId": "102000058"
    },
    {
      "name": "용산구청",
      "lat": 37.530303,
      "lng": 126.991163,
      "stopNo": "03153",
      "nodeId": "102000059"
    },
    {
      "name": "장충단로입구",
      "lat": 37.545795,
      "lng": 127.002202,
      "stopNo": "03158",
      "nodeId": "102000064"
    },
    {
      "name": "남산맨션아파트.남산예술원",
      "lat": 37.544437,
      "lng": 127.00204,
      "stopNo": "03159",
      "nodeId": "102000065"
    },
    {
      "name": "서울중부기술교육원.블루스퀘어",
      "lat": 37.5416918639,
      "lng": 127.0033851827,
      "stopNo": "03160",
      "nodeId": "102000066"
    },
    {
      "name": "서울시중부기술교육원.블루스퀘어",
      "lat": 37.5411791533,
      "lng": 127.0031508133,
      "stopNo": "03161",
      "nodeId": "102000067"
    },
    {
      "name": "순천향대학병원",
      "lat": 37.5364422432,
      "lng": 127.0057302453,
      "stopNo": "03162",
      "nodeId": "102000068"
    },
    {
      "name": "순천향대학병원",
      "lat": 37.5356114027,
      "lng": 127.0062993526,
      "stopNo": "03163",
      "nodeId": "102000069"
    },
    {
      "name": "순천향대학병원",
      "lat": 37.5357934643,
      "lng": 127.0054993584,
      "stopNo": "03164",
      "nodeId": "102000070"
    },
    {
      "name": "순천향대학병원.한남오거리",
      "lat": 37.5354906847,
      "lng": 127.0057290409,
      "stopNo": "03165",
      "nodeId": "102000071"
    },
    {
      "name": "한남오거리",
      "lat": 37.5328478217,
      "lng": 127.0083126426,
      "stopNo": "03166",
      "nodeId": "102000072"
    },
    {
      "name": "남산도서관.용산도서관",
      "lat": 37.552282,
      "lng": 126.980835,
      "stopNo": "03167",
      "nodeId": "102000073"
    },
    {
      "name": "남산도서관.용산도서관",
      "lat": 37.5520442521,
      "lng": 126.9811340112,
      "stopNo": "03168",
      "nodeId": "102000074"
    },
    {
      "name": "후암약수터",
      "lat": 37.54869,
      "lng": 126.98432,
      "stopNo": "03169",
      "nodeId": "102000075"
    },
    {
      "name": "후암약수터",
      "lat": 37.548395263,
      "lng": 126.9841668777,
      "stopNo": "03170",
      "nodeId": "102000076"
    },
    {
      "name": "용산2가동주민센터.보성여중고",
      "lat": 37.5463968458,
      "lng": 126.9858399758,
      "stopNo": "03171",
      "nodeId": "102000077"
    },
    {
      "name": "용산2가동주민센터.보성여중고",
      "lat": 37.5462598541,
      "lng": 126.9856317665,
      "stopNo": "03172",
      "nodeId": "102000078"
    },
    {
      "name": "남산야외식물원입구",
      "lat": 37.5427038827,
      "lng": 126.9927901963,
      "stopNo": "03173",
      "nodeId": "102000079"
    },
    {
      "name": "남산야외식물원입구",
      "lat": 37.5425047481,
      "lng": 126.992916961,
      "stopNo": "03174",
      "nodeId": "102000080"
    },
    {
      "name": "하얏트호텔",
      "lat": 37.5417535527,
      "lng": 126.9961358368,
      "stopNo": "03175",
      "nodeId": "102000081"
    },
    {
      "name": "하얏트호텔",
      "lat": 37.540866103,
      "lng": 126.9974258076,
      "stopNo": "03176",
      "nodeId": "102000082"
    },
    {
      "name": "용마루고개(서울자동차고등학교)",
      "lat": 37.5406368923,
      "lng": 126.9584647114,
      "stopNo": "03177",
      "nodeId": "102000083"
    },
    {
      "name": "용마루고개.효창파크푸르지오아파트",
      "lat": 37.5402999129,
      "lng": 126.9585520334,
      "stopNo": "03178",
      "nodeId": "102000084"
    },
    {
      "name": "효창공원앞역.이봉창역사울림관",
      "lat": 37.5392719714,
      "lng": 126.9618971064,
      "stopNo": "03179",
      "nodeId": "102000085"
    },
    {
      "name": "효창공원앞역.이봉창역사울림관",
      "lat": 37.5388284845,
      "lng": 126.9626978558,
      "stopNo": "03180",
      "nodeId": "102000086"
    },
    {
      "name": "용산꿈나무종합타운.보건분소",
      "lat": 37.5384268178,
      "lng": 126.9649997667,
      "stopNo": "03181",
      "nodeId": "102000087"
    },
    {
      "name": "용산꿈나무종합타운.보건분소",
      "lat": 37.538295,
      "lng": 126.964648,
      "stopNo": "03182",
      "nodeId": "102000088"
    },
    {
      "name": "원효로제1동주민센터",
      "lat": 37.5376607152,
      "lng": 126.9669923459,
      "stopNo": "03183",
      "nodeId": "102000089"
    },
    {
      "name": "전쟁기념관",
      "lat": 37.5347586674,
      "lng": 126.9768577525,
      "stopNo": "03184",
      "nodeId": "102000090"
    },
    {
      "name": "전쟁기념관",
      "lat": 37.534651168,
      "lng": 126.9753831458,
      "stopNo": "03185",
      "nodeId": "102000091"
    },
    {
      "name": "녹사평역",
      "lat": 37.5351069553,
      "lng": 126.9851183494,
      "stopNo": "03186",
      "nodeId": "102000092"
    },
    {
      "name": "녹사평역",
      "lat": 37.5347582183,
      "lng": 126.9853046955,
      "stopNo": "03187",
      "nodeId": "102000093"
    },
    {
      "name": "용산구청.이태원시장",
      "lat": 37.5343830489,
      "lng": 126.9904706555,
      "stopNo": "03188",
      "nodeId": "102000094"
    },
    {
      "name": "용산구청.이태원시장",
      "lat": 37.5341127106,
      "lng": 126.9900096398,
      "stopNo": "03189",
      "nodeId": "102000095"
    },
    {
      "name": "이태원역1번출구.해밀턴호텔",
      "lat": 37.534552,
      "lng": 126.993043,
      "stopNo": "03190",
      "nodeId": "102000096"
    },
    {
      "name": "이태원역4번출구.해밀턴호텔",
      "lat": 37.5343539681,
      "lng": 126.9934293088,
      "stopNo": "03191",
      "nodeId": "102000097"
    },
    {
      "name": "이태원119안전센터",
      "lat": 37.53479,
      "lng": 126.996387,
      "stopNo": "03192",
      "nodeId": "102000098"
    },
    {
      "name": "이태원119안전센터",
      "lat": 37.534604145,
      "lng": 126.997179939,
      "stopNo": "03193",
      "nodeId": "102000099"
    },
    {
      "name": "한남동주민센터",
      "lat": 37.5370458894,
      "lng": 127.0004667254,
      "stopNo": "03194",
      "nodeId": "102000100"
    },
    {
      "name": "한남동주민센터",
      "lat": 37.5367073033,
      "lng": 127.0006042579,
      "stopNo": "03195",
      "nodeId": "102000101"
    },
    {
      "name": "한강진역.블루스퀘어",
      "lat": 37.540805,
      "lng": 127.001695,
      "stopNo": "03196",
      "nodeId": "102000102"
    },
    {
      "name": "한강진역.블루스퀘어",
      "lat": 37.5409291837,
      "lng": 127.0020254103,
      "stopNo": "03197",
      "nodeId": "102000103"
    },
    {
      "name": "서울역11번출구",
      "lat": 37.5536168846,
      "lng": 126.9738943742,
      "stopNo": "03198",
      "nodeId": "102000104"
    },
    {
      "name": "후암삼거리",
      "lat": 37.5525408404,
      "lng": 126.9765772255,
      "stopNo": "03199",
      "nodeId": "102000105"
    },
    {
      "name": "후암시장",
      "lat": 37.5506891863,
      "lng": 126.9770644706,
      "stopNo": "03200",
      "nodeId": "102000106"
    },
    {
      "name": "후암시장",
      "lat": 37.5497467332,
      "lng": 126.9775446282,
      "stopNo": "03201",
      "nodeId": "102000107"
    },
    {
      "name": "용산중고",
      "lat": 37.5466597949,
      "lng": 126.9781855672,
      "stopNo": "03202",
      "nodeId": "102000108"
    },
    {
      "name": "용산중고",
      "lat": 37.547205,
      "lng": 126.978225,
      "stopNo": "03203",
      "nodeId": "102000109"
    },
    {
      "name": "후암동종점.용산중학교",
      "lat": 37.5466989277,
      "lng": 126.9809588102,
      "stopNo": "03204",
      "nodeId": "102000110"
    },
    {
      "name": "용산고등학교",
      "lat": 37.54574,
      "lng": 126.977563,
      "stopNo": "03205",
      "nodeId": "102000111"
    },
    {
      "name": "남영동주민센터",
      "lat": 37.545772,
      "lng": 126.976572,
      "stopNo": "03206",
      "nodeId": "102000112"
    },
    {
      "name": "남영동주민센터",
      "lat": 37.545505,
      "lng": 126.975732,
      "stopNo": "03207",
      "nodeId": "102000113"
    },
    {
      "name": "남영우체국",
      "lat": 37.5451241168,
      "lng": 126.973235384,
      "stopNo": "03208",
      "nodeId": "102000114"
    },
    {
      "name": "갈월동사회복지관.남영우체국",
      "lat": 37.545409,
      "lng": 126.973962,
      "stopNo": "03209",
      "nodeId": "102000115"
    },
    {
      "name": "한남시범아파트",
      "lat": 37.5379429734,
      "lng": 127.0122607528,
      "stopNo": "03210",
      "nodeId": "102000116"
    },
    {
      "name": "한남시범아파트",
      "lat": 37.5377041394,
      "lng": 127.0126714787,
      "stopNo": "03211",
      "nodeId": "102000117"
    },
    {
      "name": "한남동",
      "lat": 37.5339127002,
      "lng": 127.0084445845,
      "stopNo": "03212",
      "nodeId": "102000118"
    },
    {
      "name": "한남동",
      "lat": 37.5337549896,
      "lng": 127.0087002913,
      "stopNo": "03213",
      "nodeId": "102000119"
    },
    {
      "name": "만리동고개",
      "lat": 37.551670014,
      "lng": 126.9628215994,
      "stopNo": "03227",
      "nodeId": "102000133"
    },
    {
      "name": "손기정체육공원",
      "lat": 37.5542153265,
      "lng": 126.9664230215,
      "stopNo": "03228",
      "nodeId": "102000134"
    },
    {
      "name": "숙대입구역",
      "lat": 37.544479,
      "lng": 126.970799,
      "stopNo": "03229",
      "nodeId": "102000135"
    },
    {
      "name": "남영역.민주화운동기념관",
      "lat": 37.5422202391,
      "lng": 126.9709244565,
      "stopNo": "03230",
      "nodeId": "102000136"
    },
    {
      "name": "숙명여대도서관앞",
      "lat": 37.5448468654,
      "lng": 126.9672216718,
      "stopNo": "03231",
      "nodeId": "102000137"
    },
    {
      "name": "숙명여대도서관앞",
      "lat": 37.5448412411,
      "lng": 126.9664464653,
      "stopNo": "03232",
      "nodeId": "102000138"
    },
    {
      "name": "숙명여대정문",
      "lat": 37.5449594985,
      "lng": 126.9641094647,
      "stopNo": "03233",
      "nodeId": "102000139"
    },
    {
      "name": "숙명여대정문",
      "lat": 37.5451307674,
      "lng": 126.9643096929,
      "stopNo": "03234",
      "nodeId": "102000140"
    },
    {
      "name": "숙명여대후문.이봉창활동터",
      "lat": 37.5460839723,
      "lng": 126.9632996424,
      "stopNo": "03235",
      "nodeId": "102000141"
    },
    {
      "name": "효창공원후문",
      "lat": 37.5467910299,
      "lng": 126.9625778991,
      "stopNo": "03236",
      "nodeId": "102000142"
    },
    {
      "name": "한겨레신문사입구",
      "lat": 37.5458806239,
      "lng": 126.9591928852,
      "stopNo": "03237",
      "nodeId": "102000143"
    },
    {
      "name": "대한노인회중앙회",
      "lat": 37.5437890449,
      "lng": 126.9576684412,
      "stopNo": "03238",
      "nodeId": "102000144"
    },
    {
      "name": "효창운동장.효창동주민센터",
      "lat": 37.5422095196,
      "lng": 126.9617671315,
      "stopNo": "03239",
      "nodeId": "102000145"
    },
    {
      "name": "효창동주민센터.금양초등학교",
      "lat": 37.5416239572,
      "lng": 126.9622336676,
      "stopNo": "03240",
      "nodeId": "102000146"
    },
    {
      "name": "금양초등학교",
      "lat": 37.5412992546,
      "lng": 126.9620007403,
      "stopNo": "03241",
      "nodeId": "102000147"
    },
    {
      "name": "효창공원역",
      "lat": 37.5387860159,
      "lng": 126.9610378658,
      "stopNo": "03242",
      "nodeId": "102000148"
    },
    {
      "name": "도원삼성래미안아파트",
      "lat": 37.539776803,
      "lng": 126.9574338661,
      "stopNo": "03243",
      "nodeId": "102000149"
    },
    {
      "name": "도원삼성래미안아파트",
      "lat": 37.5396254142,
      "lng": 126.9572103137,
      "stopNo": "03244",
      "nodeId": "102000150"
    },
    {
      "name": "중앙하이츠빌라앞",
      "lat": 37.5380144603,
      "lng": 126.9600336494,
      "stopNo": "03245",
      "nodeId": "102000151"
    },
    {
      "name": "중앙하이츠빌라앞",
      "lat": 37.5379738635,
      "lng": 126.9598809227,
      "stopNo": "03246",
      "nodeId": "102000152"
    },
    {
      "name": "용문시장",
      "lat": 37.5363479221,
      "lng": 126.9609679808,
      "stopNo": "03247",
      "nodeId": "102000153"
    },
    {
      "name": "용문시장",
      "lat": 37.5359792047,
      "lng": 126.9613595571,
      "stopNo": "03248",
      "nodeId": "102000154"
    },
    {
      "name": "용산전자상가입구",
      "lat": 37.5345701678,
      "lng": 126.9622225151,
      "stopNo": "03249",
      "nodeId": "102000155"
    },
    {
      "name": "용산전자상가입구",
      "lat": 37.5346611171,
      "lng": 126.9619447091,
      "stopNo": "03250",
      "nodeId": "102000156"
    },
    {
      "name": "신용산지하차도",
      "lat": 37.5328348806,
      "lng": 126.963668181,
      "stopNo": "03251",
      "nodeId": "102000157"
    },
    {
      "name": "신용산지하차도",
      "lat": 37.53259,
      "lng": 126.963882,
      "stopNo": "03252",
      "nodeId": "102000158"
    },
    {
      "name": "신용산역5번출구",
      "lat": 37.5300338589,
      "lng": 126.9676784797,
      "stopNo": "03253",
      "nodeId": "102000159"
    },
    {
      "name": "한국폴리텍1대학",
      "lat": 37.5301959868,
      "lng": 126.9967926172,
      "stopNo": "03281",
      "nodeId": "102000187"
    },
    {
      "name": "한국폴리텍1대학",
      "lat": 37.5305293513,
      "lng": 126.9965748167,
      "stopNo": "03282",
      "nodeId": "102000188"
    },
    {
      "name": "이태원역.보광동입구",
      "lat": 37.5334,
      "lng": 126.994213,
      "stopNo": "03283",
      "nodeId": "102000189"
    },
    {
      "name": "이태원역.보광동입구",
      "lat": 37.5338224192,
      "lng": 126.9942269972,
      "stopNo": "03284",
      "nodeId": "102000190"
    },
    {
      "name": "한남역.용산노인종합복지관",
      "lat": 37.5312239311,
      "lng": 127.006795706,
      "stopNo": "03285",
      "nodeId": "102000191"
    },
    {
      "name": "한남역.용산노인종합복지관",
      "lat": 37.5306687947,
      "lng": 127.007769858,
      "stopNo": "03286",
      "nodeId": "102000192"
    },
    {
      "name": "이촌119안전센터.성촌공원",
      "lat": 37.5300799765,
      "lng": 126.9529474778,
      "stopNo": "03287",
      "nodeId": "102000193"
    },
    {
      "name": "이촌로입구.성촌공원앞",
      "lat": 37.5301710306,
      "lng": 126.9546065451,
      "stopNo": "03288",
      "nodeId": "102000194"
    },
    {
      "name": "원효2동산호아파트후문",
      "lat": 37.5322600069,
      "lng": 126.9500126665,
      "stopNo": "03296",
      "nodeId": "102000202"
    },
    {
      "name": "원효2동산호아파트",
      "lat": 37.5330177683,
      "lng": 126.9505415559,
      "stopNo": "03299",
      "nodeId": "102000205"
    },
    {
      "name": "원효2동산호아파트",
      "lat": 37.5331088986,
      "lng": 126.9508277689,
      "stopNo": "03300",
      "nodeId": "102000206"
    },
    {
      "name": "원효로풍전아파트",
      "lat": 37.5321286462,
      "lng": 126.9535225314,
      "stopNo": "03301",
      "nodeId": "102000207"
    },
    {
      "name": "원효로풍전아파트",
      "lat": 37.5323687724,
      "lng": 126.9545135613,
      "stopNo": "03302",
      "nodeId": "102000208"
    },
    {
      "name": "원효풍전아파트",
      "lat": 37.532742142,
      "lng": 126.9559182022,
      "stopNo": "03303",
      "nodeId": "102000209"
    },
    {
      "name": "원효2동주민센터",
      "lat": 37.5344941039,
      "lng": 126.9513961673,
      "stopNo": "03304",
      "nodeId": "102000210"
    },
    {
      "name": "산천동리버힐삼성아파트",
      "lat": 37.5345003443,
      "lng": 126.9511923413,
      "stopNo": "03305",
      "nodeId": "102000211"
    },
    {
      "name": "산천동.성심여중고후문",
      "lat": 37.5353203855,
      "lng": 126.9536425118,
      "stopNo": "03306",
      "nodeId": "102000212"
    },
    {
      "name": "산천동.성심여중고후문",
      "lat": 37.5354081306,
      "lng": 126.9533822284,
      "stopNo": "03307",
      "nodeId": "102000213"
    },
    {
      "name": "신창동세방아파트",
      "lat": 37.5357083247,
      "lng": 126.954957565,
      "stopNo": "03308",
      "nodeId": "102000214"
    },
    {
      "name": "신창동세방아파트",
      "lat": 37.5358300537,
      "lng": 126.9549471079,
      "stopNo": "03309",
      "nodeId": "102000215"
    },
    {
      "name": "남이장군사당",
      "lat": 37.5366590687,
      "lng": 126.9579937738,
      "stopNo": "03310",
      "nodeId": "102000216"
    },
    {
      "name": "남이장군사당",
      "lat": 37.5367544611,
      "lng": 126.9575932164,
      "stopNo": "03311",
      "nodeId": "102000217"
    },
    {
      "name": "용문시장.용문동새마을금고",
      "lat": 37.5370716239,
      "lng": 126.9595337638,
      "stopNo": "03312",
      "nodeId": "102000218"
    },
    {
      "name": "용문시장.용문동새마을금고",
      "lat": 37.5371492138,
      "lng": 126.9591968331,
      "stopNo": "03313",
      "nodeId": "102000219"
    },